"name","pointx_class","lat","lon","poi_class","Entertainment","Gambling","Sports","id"
"Alexandra Palace",4250762,51.5944975508146,-0.130454150935865,"Entertainment",1,0,0,1
"Hillcroft C C Ltd",4240299,51.3274959059072,-0.327096892810372,"Sports",0,0,1,2
"Spirit Health Club Brentwood",4240293,51.6107153451998,0.268703451338933,"Sports",0,0,1,3
"Belvedere Sports & Social Club",4250314,51.4819874581028,0.136225399517073,"Entertainment",1,0,0,4
"The Cherry Red Records Stadium (AFC Wimbledon Ltd)",4240302,51.4311415817177,-0.187265926897696,"Sports",0,0,1,5
"Jazz After Dark Ltd",4250312,51.5144919138053,-0.131036620309338,"Entertainment",1,0,0,6
"Pit Theatre at the Barbican",4250315,51.5199607871407,-0.0941300160380609,"Entertainment",1,0,0,7
"Wembley Arena",4250762,51.5579084902817,-0.28352936242351,"Entertainment",1,0,0,8
"Herne Hill Velodrome",4240306,51.4512403070703,-0.0904864169344056,"Sports",0,0,1,9
"Richmond Theatre (Ambassador Theatre Group)",4250315,51.4620751945365,-0.303797429225034,"Entertainment",1,0,0,10
"Ambassador Fortune Theatre",4250315,51.5133111854972,-0.120737071474748,"Entertainment",1,0,0,11
"Top Gold",4240292,51.6418721822809,0.0941864202187427,"Sports",0,0,1,12
"Velodrome",4240306,51.5504314698627,-0.0152977343528516,"Sports",0,0,1,13
"West Five Bar",4250312,51.4985579166297,-0.303221388626388,"Entertainment",1,0,0,14
"Brixton Jamm",4250312,51.4707960678886,-0.111887211076384,"Entertainment",1,0,0,15
"The Pod Bar",4250312,51.4192513514059,-0.201140719792824,"Entertainment",1,0,0,16
"The Griffin",4250312,51.5216278799649,-0.112250390979091,"Entertainment",1,0,0,17
"Beduin",4250312,51.5193203832241,-0.103553259011308,"Entertainment",1,0,0,18
"Camden Comedy Club",4250315,51.5373540249479,-0.140857293553547,"Entertainment",1,0,0,19
"Mint Group",4250312,51.4631321743652,-0.135914198608363,"Entertainment",1,0,0,20
"The White Swan",4250312,51.5125493469977,-0.041200173829713,"Entertainment",1,0,0,21
"Trinity",4210273,51.5791787367047,-0.333689604014946,"Entertainment",1,0,0,22
"Arcadia",4250312,51.457450720204,0.137929674879702,"Entertainment",1,0,0,23
"Troy Bar & Restaurant Ltd",4250312,51.5276830624144,-0.0800367210328561,"Entertainment",1,0,0,24
"Maddox Club",4250312,51.5126742012794,-0.142280211228475,"Entertainment",1,0,0,25
"Little Ship Club",4250314,51.5097785145542,-0.0929683315673213,"Entertainment",1,0,0,26
"Bacchus",4250312,51.4099170408783,-0.305273898751669,"Entertainment",1,0,0,27
"Thirst Bar",4250312,51.514279447007,-0.131247090122207,"Entertainment",1,0,0,28
"China & Co Ltd",4210273,51.505739910554,-0.258847390654083,"Entertainment",1,0,0,29
"Dans le Noir",4210273,51.5229002564706,-0.106388468622619,"Entertainment",1,0,0,30
"Suzanne James Ltd",4210273,51.4577573610997,-0.0666791790342102,"Entertainment",1,0,0,31
"Balloon Events",4210273,51.3713671575487,-0.242111404439378,"Entertainment",1,0,0,32
"Rockbottom Music Shop",4250315,51.3794903624794,-0.103892278680298,"Entertainment",1,0,0,33
"Tennis Academy",4240305,51.3102850536657,0.190198912803012,"Sports",0,0,1,34
"Future Cheer",4210273,51.3328885253068,-0.159619523102788,"Entertainment",1,0,0,35
"St George's Hill Golf Club",4240292,51.3465315046,-0.449189583724857,"Sports",0,0,1,36
"Stapleford Abbotts Golf Club",4240292,51.6318950156912,0.199646893387899,"Sports",0,0,1,37
"Cray Valley Club House",4250314,51.4051310265808,0.130944751963486,"Entertainment",1,0,0,38
"Pachesham Golf Centre",4240292,51.3131161664861,-0.347320935279725,"Sports",0,0,1,39
"P J Music",4210276,51.5986267840776,-0.0262069292745696,"Entertainment",1,0,0,40
"Odeon Cinemas",4250308,51.4584976374111,-0.305139190496517,"Entertainment",1,0,0,41
"Odeon Cinemas",4250308,51.558717165808,-0.12147710250563,"Entertainment",1,0,0,42
"Electric House",4250308,51.5155226353638,-0.205090147206454,"Entertainment",1,0,0,43
"Mo Phatzone Promotions",4210276,51.5808475560691,-0.0186780938360941,"Entertainment",1,0,0,44
"Knight Fantastic Com",4210276,51.3928787946582,-0.251219423811423,"Entertainment",1,0,0,45
"Curzon",4250308,51.5127934283326,-0.130484984818849,"Entertainment",1,0,0,46
"Astro Discos",4210276,51.5886532724892,0.210978973317524,"Entertainment",1,0,0,47
"Phoenix Cinema",4250308,51.5885045035383,-0.163684652295148,"Entertainment",1,0,0,48
"Micks Disco",4210276,51.5217899360253,-0.33810582138587,"Entertainment",1,0,0,49
"Odeon Cinemas",4250308,51.5145743881103,-0.188740575467957,"Entertainment",1,0,0,50
"Odeon Cinemas",4250308,51.5097089815633,-0.130540640088035,"Entertainment",1,0,0,51
"Vue Cinemas",4250308,51.5341652318739,-0.106223791174595,"Entertainment",1,0,0,52
"Spectrum Disco",4210276,51.44012084019,-0.527762595260083,"Entertainment",1,0,0,53
"Cloud 9 Revival Disco",4210276,51.3071602869516,-0.32855954346336,"Entertainment",1,0,0,54
"Gallery 8 Management Ltd",4250762,51.5072010906561,-0.137387238771557,"Entertainment",1,0,0,55
"The Lacquer Chest",4210273,51.5046586661639,-0.193888833106195,"Entertainment",1,0,0,56
"Contemporary Wardrobe Collection",4210273,51.5227932439699,-0.124354120689232,"Entertainment",1,0,0,57
"Splats Entertainment",4210273,51.5822733421266,-0.195313518926416,"Entertainment",1,0,0,58
"B J Hardware Ltd",4210273,51.4312104875398,-0.165684011499188,"Entertainment",1,0,0,59
"E M D M Management",4210273,51.47833319306,-0.182076108878741,"Entertainment",1,0,0,60
"The Royal Vauxhall Tavern",4210273,51.4863870207123,-0.121829878873958,"Entertainment",1,0,0,61
"Oasis Sports Centre",4240293,51.515659928614,-0.125901084586638,"Sports",0,0,1,62
"Pippin Puppets",4210273,51.5896250868165,-0.128286654215887,"Entertainment",1,0,0,63
"The Palm Beach Casino",4220280,51.5082019471268,-0.144364306795707,"Gambling",0,1,0,64
"King ' S Head Theatre Pub",4250315,51.5383010120641,-0.1028364520458,"Entertainment",1,0,0,65
"Oily Cart",4210273,51.4307760015489,-0.178765336547771,"Entertainment",1,0,0,66
"Molesey Boat Club",4230287,51.4071531555504,-0.351323415448818,"Sports",0,0,1,67
"Origin Corporate Events",4210273,51.4699244373272,-0.190048660099458,"Entertainment",1,0,0,68
"Pinner Green Social Club Ltd",4250314,51.59980179928,-0.401217105729256,"Entertainment",1,0,0,69
"Pinner Bridge Club",4250314,51.5902418055335,-0.380129754421664,"Entertainment",1,0,0,70
"Namco Fun Scape",4240290,51.5746769424282,0.180058001194608,"Sports",0,0,1,71
"Pentameters Theatre",4250315,51.5559918400179,-0.178469278183644,"Entertainment",1,0,0,72
"The Peacock Theatre",4250315,51.5146254379152,-0.118016666400976,"Entertainment",1,0,0,73
"Paramount International Management Ltd",4210273,51.5230901572927,-0.163003325996848,"Entertainment",1,0,0,74
"Panic Music Studios",4250315,51.526390876825,-0.26887172363788,"Entertainment",1,0,0,75
"Optimum Gym",4240293,51.5746552206872,-0.414798833268723,"Sports",0,0,1,76
"Old Mill Equestrian Centre",4230321,51.4133695384384,0.211459885992367,"Sports",0,0,1,77
"Old Finchleians Club",4250314,51.6185079490155,-0.190292559111772,"Entertainment",1,0,0,78
"Old Chigwellians Clubhouse",4250314,51.6284889605497,0.0740493733428003,"Entertainment",1,0,0,79
"Oxhey Conservative Club",4250314,51.6453032313679,-0.379614945342003,"Entertainment",1,0,0,80
"Park Crescent Conference Centre",4250762,51.5235683559321,-0.144820838338,"Entertainment",1,0,0,81
"The New Eltham Social Club",4250314,51.4386365182432,0.0746832436948069,"Entertainment",1,0,0,82
"Paul's Race Nights",4210273,51.471188685756,0.0932574292950088,"Entertainment",1,0,0,83
"Over 21 Club",4250314,51.3428111917841,-0.0213941963686255,"Entertainment",1,0,0,84
"Shootershill Sports & Social Club",4250314,51.4664511687992,0.0441863809448196,"Entertainment",1,0,0,85
"Oxshott Club",4250314,51.3310091082276,-0.363170941253391,"Entertainment",1,0,0,86
"The Old Cranleighan Club",4250314,51.3822944428054,-0.341510790907835,"Entertainment",1,0,0,87
"Bushy Park Sports Club",4250314,51.4212719859909,-0.335595637528735,"Entertainment",1,0,0,88
"Pavilion Sports & Cafe",4240305,51.6025543724345,-0.133482064626502,"Sports",0,0,1,89
"Mahiki",4250312,51.5077664893045,-0.141283784395298,"Entertainment",1,0,0,90
"Grosvenor Casinos",4220280,51.5017725492025,-0.158872504108025,"Gambling",0,1,0,91
"Swan Bar & Entertainment Ltd",4250312,51.4720362415587,-0.122476927273152,"Entertainment",1,0,0,92
"Piccadilly Theatre",4250315,51.5110542789347,-0.135399840982257,"Entertainment",1,0,0,93
"Done Our Bit Club",4250314,51.5476522955741,-0.197451086788126,"Entertainment",1,0,0,94
"Thames Motor Yacht Club",4230287,51.4050646709818,-0.342239973622877,"Sports",0,0,1,95
"Spelthorne Leisure Centre",4240293,51.4301784922312,-0.501742756986868,"Sports",0,0,1,96
"Prince of Wales Theatre",4250315,51.5099987754069,-0.131796947675443,"Entertainment",1,0,0,97
"United Talent Agency",4210273,51.5314805081534,-0.103134444968187,"Entertainment",1,0,0,98
"The Athenaeum",4250314,51.5068393238035,-0.132733144502863,"Entertainment",1,0,0,99
"Sidcup & Foots Cray United Services Club",4250314,51.4261961293438,0.0993568118640851,"Entertainment",1,0,0,100
"Slade Green Railway Club",4250314,51.4678410464263,0.190350109420748,"Entertainment",1,0,0,101
"Achieve Lifestyle",4240293,51.3701715121803,-0.503745174094379,"Sports",0,0,1,102
"St Alban's Centre",4250762,51.5198269140161,-0.110422193492689,"Entertainment",1,0,0,103
"The Pleasance Theatre",4250315,51.5487660597973,-0.121699530200264,"Entertainment",1,0,0,104
"Staines & Egham Sea Cadets",4250314,51.4359250595158,-0.522329690810794,"Entertainment",1,0,0,105
"English Touring Theatre",4210273,51.5028660231055,-0.107017366809304,"Entertainment",1,0,0,106
"John Kent",4230321,51.3097454944297,-0.150760199633995,"Sports",0,0,1,107
"The Royal British Legion",4250314,51.4276421866497,-0.327443951506057,"Entertainment",1,0,0,108
"Legionaire Club Willesden",4250314,51.5503291948583,-0.239909378728269,"Entertainment",1,0,0,109
"Southgate Leisure Centre",4240293,51.634383294558,-0.124537131149426,"Sports",0,0,1,110
"South London Irish Association Centre",4250314,51.416767087404,-0.202748307459043,"Entertainment",1,0,0,111
"Club Aquarium",4250312,51.5258923182765,-0.0851879749927299,"Entertainment",1,0,0,112
"Penge Conservative Club",4250314,51.4113180138253,-0.0546614371369364,"Entertainment",1,0,0,113
"St Georges Swimming Pool",4240304,51.5098912837177,-0.0581896430741366,"Sports",0,0,1,114
"Pedham Place Golf Centre",4240292,51.3840250926823,0.197934897563892,"Sports",0,0,1,115
"Cricklewood Trades Hall",4250314,51.5600773297631,-0.209036456317455,"Entertainment",1,0,0,116
"St Antony's Catholic Club",4250314,51.5416952615156,0.0244277730015694,"Entertainment",1,0,0,117
"Becket Sports Centre",4240293,51.4444887610309,0.205465448320225,"Sports",0,0,1,118
"Regents Park Tennis & Cafe",4240305,51.5257781014588,-0.15264539623067,"Sports",0,0,1,119
"Sporting Affair Ltd",4210273,51.4279333367512,-0.318943384788492,"Entertainment",1,0,0,120
"Old Fold Manor Golf Club",4240292,51.6651925705134,-0.204315885841787,"Sports",0,0,1,121
"Ponders End Working Mens Social Club",4250314,51.643979298726,-0.0441405691856278,"Entertainment",1,0,0,122
"Tooting Progressive Working Men's Club",4250314,51.4225530888763,-0.160104697147956,"Entertainment",1,0,0,123
"College Racing Beckenham Ltd",4220279,51.3920076127877,-0.038303670532412,"Gambling",0,1,0,124
"The Granaries",4250312,51.3727440021776,-0.102225605348111,"Entertainment",1,0,0,125
"Balham Leisure Centre",4240293,51.4412067110369,-0.152289990727684,"Sports",0,0,1,126
"Southborough Lane Stables",4230321,51.3913309110316,0.0587921759130848,"Sports",0,0,1,127
"Soho Gyms",4240293,51.462805630546,-0.134041610551162,"Sports",0,0,1,128
"Soho Gyms",4240293,51.5157495821711,-0.122510383335705,"Sports",0,0,1,129
"Byfleet Village Club",4250314,51.3386031913888,-0.477524360497273,"Entertainment",1,0,0,130
"Tooting Conservative & Unionist Club Ltd",4250314,51.4272577989084,-0.16594300031988,"Entertainment",1,0,0,131
"Sports Ground Harlington",4240302,51.4900099849493,-0.441978530020945,"Sports",0,0,1,132
"Staines Conservative Club",4250314,51.4329944925984,-0.513864486329849,"Entertainment",1,0,0,133
"Hampstead Golf Club",4240292,51.5759146987019,-0.178251590784551,"Sports",0,0,1,134
"Pegasus Opera Co",4210273,51.4638747542031,-0.115426521124415,"Entertainment",1,0,0,135
"Plumstead Common Working Men's Club",4250314,51.4787864917091,0.0900956373592,"Entertainment",1,0,0,136
"St Ediths Club",4250314,51.3060508693986,0.230601202583073,"Entertainment",1,0,0,137
"Polka Theatre",4210273,51.4197315765229,-0.195000682016734,"Entertainment",1,0,0,138
"Aveley Village Social Club Ltd",4250314,51.4996759268126,0.25207494085041,"Entertainment",1,0,0,139
"Sidcup Conservative Club",4250314,51.4197655650831,0.109906943882562,"Entertainment",1,0,0,140
"Pools on the Park",4240304,51.466280733029,-0.301981522528578,"Sports",0,0,1,141
"National Reserve & Social Club",4250314,51.3711231873508,-0.493801092110658,"Entertainment",1,0,0,142
"New Eltham Conservative Club",4250314,51.4358193213237,0.0684608102755483,"Entertainment",1,0,0,143
"The Royal British Legion",4250314,51.3604682768375,-0.218311254265202,"Entertainment",1,0,0,144
"Howard Robbins Toastmaster",4210273,51.5845513536521,0.0704599092264595,"Entertainment",1,0,0,145
"The Royal British Legion",4250314,51.6599823821236,-0.269048242783545,"Entertainment",1,0,0,146
"The National Liberal Club",4250314,51.5060410397492,-0.12384612389022,"Entertainment",1,0,0,147
"Nuffield Fitness & Wellbeing Centres",4240293,51.5255315189025,-0.0794554420719371,"Sports",0,0,1,148
"Kings Club",4240293,51.4216765081034,-0.225969913874155,"Sports",0,0,1,149
"Kids",4210271,51.5696776766385,-0.0545651296863212,"Entertainment",1,0,0,150
"Campsbourne Play Centre",4210271,51.5917639668467,-0.119204533945454,"Entertainment",1,0,0,151
"Johnny Lawrence Ginger",4210273,51.5689175249704,0.192338238242218,"Entertainment",1,0,0,152
"Mastercat Productions Ltd",4210273,51.5679057383878,-0.133767343281775,"Entertainment",1,0,0,153
"Chessington Equestrian Centre",4230321,51.371968130553,-0.316712463651578,"Sports",0,0,1,154
"Chertsey Soldiers & Sailors Club",4250314,51.3900527793958,-0.504672037090047,"Entertainment",1,0,0,155
"Chertsey Social Club",4250314,51.3890215178409,-0.509554883794171,"Entertainment",1,0,0,156
"Carshalton Social Club",4250314,51.3686004399751,-0.165471864566497,"Entertainment",1,0,0,157
"Joysons Hill Stables",4230321,51.3052297815378,-0.0819193653911782,"Sports",0,0,1,158
"The Boat Harbour London Ltd",4230287,51.3721109250777,-0.208103786180397,"Sports",0,0,1,159
"Kingsmead Equestrian Centre",4230321,51.3223632328015,-0.0574948033090359,"Sports",0,0,1,160
"Kingston University Sports Ground",4240302,51.3772115216928,-0.277781384577851,"Sports",0,0,1,161
"The King's Club",4240293,51.4204087920784,-0.227530615441809,"Sports",0,0,1,162
"Chelsfield Lake Golf Centre",4240292,51.3492508508229,0.128336616370568,"Sports",0,0,1,163
"O2 Academy Brixton",4250315,51.4656506416462,-0.115137397400156,"Entertainment",1,0,0,164
"New Haw Club & Institute",4250314,51.3553033152444,-0.488733189273745,"Entertainment",1,0,0,165
"J L A",4210273,51.5173203942292,-0.136426731496986,"Entertainment",1,0,0,166
"Golden Lane Sport & Fitness",4240293,51.5225877676794,-0.0965271160118876,"Sports",0,0,1,167
"Bushey Grove Leisure Centre",4240293,51.6556230958098,-0.37360733814975,"Sports",0,0,1,168
"The in & Out Club",4250314,51.5080945102259,-0.134756927717896,"Entertainment",1,0,0,169
"Clown Town",4210271,51.608040010879,-0.154313584561649,"Entertainment",1,0,0,170
"Face Painting Fairies",4210273,51.4760576404142,-0.124831863105578,"Entertainment",1,0,0,171
"Birchwood Park Golf & Country Club",4240292,51.413674492525,0.1594286045461,"Sports",0,0,1,172
"Muscle Limit Gym",4240293,51.6586163119258,-0.0278519977258095,"Sports",0,0,1,173
"Langley Park Golf Club",4240292,51.3878184208301,-0.0074807441915242,"Sports",0,0,1,174
"Kidzmania",4210271,51.5572043990424,-0.0567521227244668,"Entertainment",1,0,0,175
"Catlips Farm Livery Stables",4230321,51.6468524291969,-0.504876244010673,"Sports",0,0,1,176
"Kenneth Moore Theatre",4250315,51.5586763436326,0.0752138599175959,"Entertainment",1,0,0,177
"Central Ward Residents Club",4250314,51.3989492340467,-0.207213289711083,"Entertainment",1,0,0,178
"Charing Cross Sports Club",4240293,51.4856294458238,-0.219687997656503,"Sports",0,0,1,179
"The Comedy Store Ltd",4250315,51.5101519660254,-0.132381534969564,"Entertainment",1,0,0,180
"Awesome C I C",4210271,51.5477543253383,-0.0823952093267446,"Entertainment",1,0,0,181
"Goulds Green Riding School",4230321,51.5179099484173,-0.445220922621162,"Sports",0,0,1,182
"Weir Archer Athletics & Fitness Centre",4240293,51.4050153006848,-0.283221436409059,"Sports",0,0,1,183
"Afro Caribbean Centre",4250314,51.5282989927682,0.0325846307568524,"Entertainment",1,0,0,184
"Theatre Peckham",4210273,51.4744444313163,-0.0829080171841497,"Entertainment",1,0,0,185
"Heston Catholic Social Club",4250314,51.4882505693887,-0.373001588117604,"Entertainment",1,0,0,186
"Ability Bow Within St Pauls Church",4240293,51.5331137679031,-0.0325026513650836,"Sports",0,0,1,187
"The Venue",4250312,51.4759435532229,-0.0367724625584822,"Entertainment",1,0,0,188
"Cameron Mackintosh",4210273,51.5190285828896,-0.128608103878325,"Entertainment",1,0,0,189
"London Bubble Theatre Company",4210273,51.5004819265067,-0.0552901613328082,"Entertainment",1,0,0,190
"Sudbury Golf Club Ltd",4240292,51.5477773337987,-0.312885816832085,"Sports",0,0,1,191
"St Peter's Italian Catholic Social Club",4250314,51.5221852001392,-0.109445264773619,"Entertainment",1,0,0,192
"Kruger Cowne",4210273,51.4793607820757,-0.179219800937057,"Entertainment",1,0,0,193
"Olympian Fitness",4240293,51.5098920030976,-0.399452325688449,"Sports",0,0,1,194
"Turtle Key Arts",4210273,51.4932474136451,-0.226305905685741,"Entertainment",1,0,0,195
"Bellegrove Social Club",4250314,51.463669940937,0.10234326349386,"Entertainment",1,0,0,196
"International Event Management Ltd",4210273,51.5175073597037,-0.180408642171468,"Entertainment",1,0,0,197
"Leatherhead Constitutional Club",4250314,51.2971698226186,-0.327510959254368,"Entertainment",1,0,0,198
"Hoe Street Club & Institute",4250314,51.5893757113802,-0.0183359174285067,"Entertainment",1,0,0,199
"Hollywood Bowl",4240290,51.3779427996305,-0.280426616930614,"Sports",0,0,1,200
"M B N Promotions",4210273,51.5996902606823,-0.224893632716121,"Entertainment",1,0,0,201
"Malden Centre",4240293,51.4002937217398,-0.252463392045654,"Sports",0,0,1,202
"Stag Lodge Stables",4230321,51.4364179826585,-0.255873345137979,"Sports",0,0,1,203
"Ambassadors Theatre",4250315,51.5129959096266,-0.12801368799116,"Entertainment",1,0,0,204
"Embargo Republica",4250312,51.4802558903681,-0.185333615133775,"Entertainment",1,0,0,205
"Phil McIntyre Entertainments",4210273,51.5167465322963,-0.135399435987478,"Entertainment",1,0,0,206
"Dukes Meadows",4240292,51.4724331828001,-0.263898359066739,"Sports",0,0,1,207
"LA Fitness",4240293,51.5897906222911,-0.14153234937736,"Sports",0,0,1,208
"Pulse Studios",4250315,51.5912462512831,-0.0386827789076657,"Entertainment",1,0,0,209
"Suzohapp",4220277,51.3421255143824,-0.264580839858364,"Entertainment",1,0,0,210
"Shooters Hill Golf Club",4240292,51.4717862895303,0.0732912319611164,"Sports",0,0,1,211
"Queens",4240294,51.5109432122606,-0.187400241077898,"Sports",0,0,1,212
"Old Isleworthians Association",4250314,51.4775213394537,-0.333962281507089,"Entertainment",1,0,0,213
"Stones Gym & Fitness Centre",4240293,51.4076862682818,-0.102012930335006,"Sports",0,0,1,214
"Michael Shilling Entertainments",4210273,51.3975989500151,0.0408017312784105,"Entertainment",1,0,0,215
"Jonh Grosse",4210273,51.4730232076569,-0.35426458904153,"Entertainment",1,0,0,216
"Raven Dive",4220280,51.4117299488431,-0.302355353807368,"Gambling",0,1,0,217
"Sahibs Ltd",4250314,51.6022189373354,-0.409694986489824,"Entertainment",1,0,0,218
"Power League Fives Ltd",4240293,51.5251947622784,0.0779482005442746,"Sports",0,0,1,219
"Acton Garden Village Association",4250314,51.5176342252874,-0.274493389575718,"Entertainment",1,0,0,220
"Cherry Lodge Golf Club",4240292,51.3101766655722,0.0542821186549002,"Sports",0,0,1,221
"Amabilino Pyro Displays",4210274,51.616096004489,-0.184339134056244,"Entertainment",1,0,0,222
"Global Artists",4210273,51.51492580577,-0.122169528686948,"Entertainment",1,0,0,223
"Criterion Theatre",4250315,51.5095386692294,-0.133962990505443,"Entertainment",1,0,0,224
"Dartford Golf Club",4240292,51.4348789357394,0.196743782412596,"Sports",0,0,1,225
"Costume Workshop Ltd",4210273,51.5355001871186,-0.0602433068778533,"Entertainment",1,0,0,226
"Walton Working Men's Club",4250314,51.3872361656994,-0.419285776479934,"Entertainment",1,0,0,227
"Uxbridge Royal Naval Association",4250314,51.5511871640037,-0.447865701975954,"Entertainment",1,0,0,228
"Zone Gym",4240293,51.5945518159075,-0.113054363189327,"Sports",0,0,1,229
"Pinner Hill Golf Club",4240292,51.611578707362,-0.399168470744882,"Sports",0,0,1,230
"Dawn Sedgwick Management",4210273,51.5109032266274,-0.126485405266558,"Entertainment",1,0,0,231
"Q Stix Snookerhalls",4240301,51.4473030924184,-0.0195283355725283,"Sports",0,0,1,232
"Glenmore House",4250762,51.3951639445164,-0.305209655655726,"Entertainment",1,0,0,233
"Fullbrook Sports Centre",4240293,51.3434151085878,-0.5062390634734,"Sports",0,0,1,234
"Canons Leisure Centre",4240293,51.4004960340804,-0.163088943098532,"Sports",0,0,1,235
"Las Vegas",4220277,51.5126466835509,-0.133749514706738,"Entertainment",1,0,0,236
"Royal Automobile Country Club",4240292,51.3153779650735,-0.276768710971311,"Sports",0,0,1,237
"Rawlings Amusements",4220277,51.4354105950359,-0.451807115610513,"Entertainment",1,0,0,238
"Poynters Riding Centre",4230321,51.3128505302303,-0.42327819802251,"Sports",0,0,1,239
"Power League Fives Ltd",4240293,51.3569480879768,-0.123821109255355,"Sports",0,0,1,240
"Cavellary & Guards Club",4250314,51.5042898928102,-0.148327263817824,"Entertainment",1,0,0,241
"Orange Tree Theatre",4250315,51.4644231567571,-0.30137816274783,"Entertainment",1,0,0,242
"Fairlawn Farm",4230321,51.3397021321697,-0.185950981986276,"Sports",0,0,1,243
"Powerleague Soccer Centre",4240293,51.6065783326038,-0.0532581337265478,"Sports",0,0,1,244
"Power League Soccer Centre",4240293,51.6075381114514,-0.226756697745056,"Sports",0,0,1,245
"Labyrinthe Club",4250314,51.4072912734284,0.0578841914519131,"Entertainment",1,0,0,246
"Muscle Base Gym",4240293,51.6503218995789,-0.0362349529268177,"Sports",0,0,1,247
"Westcroft Leisure Centre",4240293,51.3679608771424,-0.158353060424567,"Sports",0,0,1,248
"Puppet Theatre Barge",4210273,51.5217215553362,-0.182518184240558,"Entertainment",1,0,0,249
"Supreme Council 33rd Degree",4250314,51.5072572978133,-0.13752904806515,"Entertainment",1,0,0,250
"Professional Speakers Association Ltd",4210273,51.390717196129,-0.505015449941993,"Entertainment",1,0,0,251
"Metro Flex Gym",4240293,51.4248645838484,-0.0327829289549266,"Sports",0,0,1,252
"Thinking Wide",4210273,51.5249112726028,-0.187580809966428,"Entertainment",1,0,0,253
"Pavilion Leisure Centre",4240293,51.4034442905621,0.0179568488042826,"Sports",0,0,1,254
"Pratt's Club",4250314,51.5064005262745,-0.139639007442764,"Entertainment",1,0,0,255
"Sternberg Clarke Entertainment",4210273,51.4571583634096,-0.198202791277142,"Entertainment",1,0,0,256
"All Star Lanes",4240290,51.5192057357252,-0.122137628540944,"Sports",0,0,1,257
"Century Club",4250314,51.5473482155306,0.0355393363987405,"Entertainment",1,0,0,258
"The Agency Excellent Entertainment Ltd",4210273,51.6361950398057,-0.17780241425691,"Entertainment",1,0,0,259
"Latin Touch Entertainment",4210273,51.506156105509,-0.259018850565416,"Entertainment",1,0,0,260
"Metropolis",4250312,51.5324872903613,-0.0567971005426407,"Entertainment",1,0,0,261
"Costume Studio",4210273,51.5463404929159,-0.0823825424120914,"Entertainment",1,0,0,262
"Quadrangle Livery Yard",4230321,51.3542220634171,0.135360517608849,"Sports",0,0,1,263
"The Body Factory",4240293,51.5390592871305,0.128629542497785,"Sports",0,0,1,264
"Purley Leisure Centre",4240304,51.3390564080943,-0.114879204523834,"Sports",0,0,1,265
"Purley Downs Golf Club",4240292,51.3402100960366,-0.096138113714332,"Sports",0,0,1,266
"Nuffield Fitness & Wellbeing Centres",4240293,51.2946754193318,-0.328150942414834,"Sports",0,0,1,267
"The Borderline",4210273,51.5148862130362,-0.130386327755707,"Entertainment",1,0,0,268
"Topgolf",4210273,51.6426748581023,0.0955675865351833,"Entertainment",1,0,0,269
"Camden Peoples Theatre",4250315,51.5263989617255,-0.138449159890545,"Entertainment",1,0,0,270
"Sidcup Leisure Centre",4240293,51.4365774158673,0.104178075921985,"Sports",0,0,1,271
"Camphill Club",4250314,51.3412528969834,-0.499590083345809,"Entertainment",1,0,0,272
"Surrey Downs Golf Club",4240292,51.2899647327646,-0.189178143087031,"Sports",0,0,1,273
"Priory Conservative Club",4250314,51.4846642713151,0.147714931147373,"Entertainment",1,0,0,274
"Centro Desportivo Cultural Portuguese",4250314,51.4745414414552,-0.121121277761784,"Entertainment",1,0,0,275
"Central Park",4240292,51.5578994277748,0.162055895359043,"Sports",0,0,1,276
"Surrey Docks Play Association",4250314,51.4927863042447,-0.043790573525422,"Entertainment",1,0,0,277
"Queensbridge Sports & Community Centre",4240293,51.5423627970888,-0.0712290026961782,"Sports",0,0,1,278
"R A O B Club",4250314,51.3690018716907,-0.500881346453979,"Entertainment",1,0,0,279
"The Royal British Legion",4250314,51.6661647573387,-0.373822735480931,"Entertainment",1,0,0,280
"Viva Vegas - Casino Hire London",4210273,51.4799889782044,-0.123806523644935,"Entertainment",1,0,0,281
"Nuffield Fitness & Wellbeing Centres",4240293,51.40528122861,-0.118382771068021,"Sports",0,0,1,282
"Sir Mark Collett Pavilion",4240293,51.3068410158473,0.236794800298283,"Sports",0,0,1,283
"Titan Fitness & Body Building Centre",4240293,51.5428694587007,-0.055617888611142,"Sports",0,0,1,284
"Wimbledon Village Stables",4230321,51.4248764364908,-0.217933328358854,"Sports",0,0,1,285
"Thirty Fifty",4210273,51.439029161364,-0.333370419153586,"Entertainment",1,0,0,286
"Pyrford Golf Club",4240292,51.3158995834101,-0.495093619677479,"Sports",0,0,1,287
"William Hill",4220279,51.6019856445324,-0.409732015692878,"Gambling",0,1,0,288
"Admiral Casino",4220277,51.4729667704018,-0.0701256584040212,"Entertainment",1,0,0,289
"Spring Health Leisure",4240293,51.5460376317379,-0.16464641485941,"Sports",0,0,1,290
"Sutton Arena Leisure Centre",4240293,51.3840904844592,-0.181403978115645,"Sports",0,0,1,291
"Stuart Learmonth Hire",4210273,51.504245245307,-0.25811186771909,"Entertainment",1,0,0,292
"Professor Palmermoff Magic Show",4210273,51.4642278440401,-0.0323718010894658,"Entertainment",1,0,0,293
"Carpenders Park & South Oxhey Labour Hall",4250314,51.6270256200303,-0.389329227971278,"Entertainment",1,0,0,294
"Rainham Working Men's Club",4250314,51.5187647995547,0.194423069023962,"Entertainment",1,0,0,295
"Jorg Betts Associates",4210273,51.5215230186728,-0.114676397089303,"Entertainment",1,0,0,296
"Fusion",4240302,51.4502510343196,-0.0220921433274895,"Sports",0,0,1,297
"La Capammina Nightclub",4250312,51.5142464834877,-0.131435799995104,"Entertainment",1,0,0,298
"Prangsta Costumiers",4210273,51.4753999758716,-0.0373919744263076,"Entertainment",1,0,0,299
"Everyone Active",4240293,51.6273963894426,-0.392368910954826,"Sports",0,0,1,300
"Keith Davis Cue Sports Club Ltd",4240301,51.5400260964498,0.127881503277195,"Sports",0,0,1,301
"The Caledonian Club",4250314,51.5007208666517,-0.152952835890181,"Entertainment",1,0,0,302
"Bushey Conservative Club",4250314,51.6449910865203,-0.368177542677724,"Entertainment",1,0,0,303
"Knight's Snooker Club",4240301,51.5626189128886,0.219884842061581,"Sports",0,0,1,304
"Langham Working Mens Club",4250314,51.5846455434489,-0.0993332406091042,"Entertainment",1,0,0,305
"Epsom Polo Club",4230321,51.3437018194515,-0.292908088146916,"Sports",0,0,1,306
"London Stage Stage Hire",4210273,51.650179453504,-0.174940375263195,"Entertainment",1,0,0,307
"Walthamstow Leisure Centre",4240293,51.5759256877296,-0.0286482476120399,"Sports",0,0,1,308
"Savage Club",4250314,51.5060410397492,-0.12384612389022,"Entertainment",1,0,0,309
"Ashmere Fisheries",4230282,51.3929175372576,-0.42583125051572,"Sports",0,0,1,310
"Winkers Night Club",4250312,51.608396421314,-0.543424972415776,"Entertainment",1,0,0,311
"Bush Hall Music Ltd",4250315,51.5064935559037,-0.231685164696851,"Entertainment",1,0,0,312
"Grosvenor Casinos",4220280,51.4933718783233,-0.183329027643438,"Gambling",0,1,0,313
"Felix de Wolfe",4210273,51.5136995158773,-0.130406092402624,"Entertainment",1,0,0,314
"Blush",4250312,51.5149964489579,-0.151525080712222,"Entertainment",1,0,0,315
"Willesden & District Social Club",4250314,51.5400146619105,-0.252521346651394,"Entertainment",1,0,0,316
"19 Private Membership Club",4250314,51.598279303683,-0.277947546765274,"Entertainment",1,0,0,317
"Charley Entertainments",4210273,51.6183087048078,-0.284282017157661,"Entertainment",1,0,0,318
"Concert Artistes Association",4250314,51.5107643069917,-0.125107621706471,"Entertainment",1,0,0,319
"Woking Snooker Centre",4240301,51.306593130167,-0.557317741726104,"Sports",0,0,1,320
"Mystical Fairies",4210273,51.5564197764266,-0.186357416279976,"Entertainment",1,0,0,321
"The Warehouse Waterloo",4250315,51.5052176727589,-0.110090009898338,"Entertainment",1,0,0,322
"Ronnie Scott's Jazz Club",4250312,51.5134056380915,-0.131715214176323,"Entertainment",1,0,0,323
"Nork Park Social Club",4250314,51.3181142286124,-0.226697507153325,"Entertainment",1,0,0,324
"Silver Hall Social Club",4250314,51.5241126072374,0.178519724379123,"Entertainment",1,0,0,325
"Morden Park Leisure Centre",4240304,51.3948443085401,-0.205111198545399,"Sports",0,0,1,326
"Crown London Aspinall's",4220280,51.5063932314887,-0.149409193005384,"Gambling",0,1,0,327
"Cobham Village Club",4250314,51.3323855274002,-0.419521937911708,"Entertainment",1,0,0,328
"Mark Wheeler",4210273,51.5129086385559,-0.101326283759405,"Entertainment",1,0,0,329
"Diamond Falls Cookies Island",4210271,51.5169057458422,0.0822798203460305,"Entertainment",1,0,0,330
"Questors Theatre",4250315,51.5117080323229,-0.309679083920655,"Entertainment",1,0,0,331
"Henderson Sports & Social Club",4250314,51.6065817348645,0.244878220545325,"Entertainment",1,0,0,332
"Froggle Parties",4210273,51.496179672447,-0.324818376644419,"Entertainment",1,0,0,333
"Tenpin",4240290,51.5651140266786,-0.105457549445778,"Sports",0,0,1,334
"West Essex Golf Club",4240292,51.6499006091518,0.0114937291795705,"Sports",0,0,1,335
"Harrow Weald Memorial Club",4250314,51.607498340297,-0.33962823239965,"Entertainment",1,0,0,336
"The Cedars Club",4250314,51.572134542476,0.13606241580513,"Entertainment",1,0,0,337
"Painting Faces",4210273,51.5176236711009,-0.525567865149148,"Entertainment",1,0,0,338
"The Silver Time",4220277,51.5093995092582,-0.196929357507414,"Entertainment",1,0,0,339
"West Byfleet Social Club",4250314,51.3393541721047,-0.504549183704775,"Entertainment",1,0,0,340
"London Development Events",4210273,51.4586743935982,-0.208170450382762,"Entertainment",1,0,0,341
"The Royal British Legion",4250314,51.4419671327972,-0.333191527607333,"Entertainment",1,0,0,342
"Kevin's Hysterical Magic",4210273,51.3484726156459,-0.0377222877074759,"Entertainment",1,0,0,343
"Lilly Putt Stables",4230321,51.5727815407082,0.241183192493123,"Sports",0,0,1,344
"Bannatyne Health & Fitness",4240293,51.437052342113,0.0256679102107782,"Sports",0,0,1,345
"Michael Vine Associates",4210273,51.572945138843,-0.161340449897467,"Entertainment",1,0,0,346
"Bunker 51",4230283,51.4943132931177,0.0353568483183459,"Sports",0,0,1,347
"Aquilla Health & Fitness Club Within the Rembrant Hotel",4240293,51.4957937139098,-0.170209299582497,"Sports",0,0,1,348
"Wickham Park Table Tennis Club",4250314,51.3794068250455,-0.0014800774395586,"Entertainment",1,0,0,349
"Michael Harrison Entertainment",4210273,51.5135790908288,-0.118376860322309,"Entertainment",1,0,0,350
"Asgard",4210273,51.5362366893447,-0.146396574693499,"Entertainment",1,0,0,351
"Addiscombe Social & Sports Club",4250314,51.3834972667947,-0.0766223912528948,"Entertainment",1,0,0,352
"Tiffin Sports Centre",4240293,51.4118046393753,-0.295667408944146,"Sports",0,0,1,353
"Green Dragons Paragliding Club",4230286,51.2963121638265,-0.0267592912332549,"Sports",0,0,1,354
"The Wisley",4240292,51.3188930130324,-0.482467734555142,"Sports",0,0,1,355
"Stage Entertainment",4210273,51.503873717244,-0.100376217742174,"Entertainment",1,0,0,356
"The Surbiton Club",4250314,51.3937700345182,-0.305764261076164,"Entertainment",1,0,0,357
"Gold's Gym",4240293,51.5493969802739,0.161553190634321,"Sports",0,0,1,358
"Stanmore Institute Club",4250314,51.617305752998,-0.310424333888736,"Entertainment",1,0,0,359
"Bexleyheath Golf Club",4240292,51.4517580629216,0.131517798088752,"Sports",0,0,1,360
"Warrens Gym Ltd",4240293,51.5708661677651,0.105236524869595,"Sports",0,0,1,361
"Stans Gym Health & Fitness",4240293,51.5357411724233,0.245381822386463,"Sports",0,0,1,362
"Wigmore Hall",4250315,51.5166539482106,-0.148287096014038,"Entertainment",1,0,0,363
"Surdoc Social Club",4250314,51.492425424239,-0.0466871514609735,"Entertainment",1,0,0,364
"Buzz Bingo",4220278,51.5378928940971,-0.0015688389052115,"Gambling",0,1,0,365
"Buzz Bingo",4220278,51.5700397028467,-0.0251510412093719,"Gambling",0,1,0,366
"Bexley Heath Conservative Club",4250314,51.456389612707,0.14186740907432,"Entertainment",1,0,0,367
"Zigzag Lighting",4250762,51.2900103587524,-0.0932671732105221,"Entertainment",1,0,0,368
"Belmont Conservative Club",4250314,51.344071296222,-0.201027490439931,"Entertainment",1,0,0,369
"Surbiton Raceway",4240297,51.376041718608,-0.267968392543524,"Sports",0,0,1,370
"Sundridge Park Working Mens Club & Institute",4250314,51.420035909334,0.0200539692448066,"Entertainment",1,0,0,371
"Bellingham Ex-servicemans Social Club",4250314,51.431517736412,-0.0172186785155272,"Entertainment",1,0,0,372
"Bedfont Football & Social Club",4250314,51.4620232405695,-0.426476367788839,"Entertainment",1,0,0,373
"Sunbury Leisure Centre",4240293,51.4148203527133,-0.421627723796463,"Sports",0,0,1,374
"Bexley Sidcup Conservative Club Ltd",4250314,51.4277584918848,0.100996455195244,"Entertainment",1,0,0,375
"Hadley Wood Golf Club",4240292,51.665667561526,-0.164140841504985,"Sports",0,0,1,376
"The Cockpit",4250315,51.5244957177735,-0.169505831637074,"Entertainment",1,0,0,377
"Golf Kingdom",4240292,51.5781480584157,0.141634144224711,"Sports",0,0,1,378
"Wimbledon Leisure Centre",4240304,51.420031684935,-0.192825718780029,"Sports",0,0,1,379
"Belvedere North Conservative Club",4250314,51.4909256095743,0.148081244950884,"Entertainment",1,0,0,380
"Beck Theatre",4250315,51.5210486825235,-0.421821007094543,"Entertainment",1,0,0,381
"Whetstone Snooker Club",4240301,51.6316785815328,-0.17481608588122,"Sports",0,0,1,382
"Tabot Centre",4210271,51.5329779338985,-0.198117320320325,"Entertainment",1,0,0,383
"Fredrick Adventure Playground",4210271,51.4858970012342,-0.102563784115007,"Entertainment",1,0,0,384
"Jelly Kelly",4210273,51.3886249815798,-0.511608622496419,"Entertainment",1,0,0,385
"Buzz Bingo",4220278,51.5934311406164,0.0835950076362032,"Gambling",0,1,0,386
"Great Custardo",4210273,51.42284024723,-0.186026617224139,"Entertainment",1,0,0,387
"Frith Manor Equestrian Centre",4230321,51.6158641791983,-0.204226825728974,"Sports",0,0,1,388
"Stanmore Golf Club",4240292,51.6103341337105,-0.313990512177643,"Sports",0,0,1,389
"The Royal British Legion",4250314,51.3862956893479,-0.293447726913309,"Entertainment",1,0,0,390
"Theatre Royal Haymarket",4250315,51.5088303184141,-0.131268319051808,"Entertainment",1,0,0,391
"Sunpostal Sports & Social Club",4250314,51.6688918436347,-0.423470785932088,"Entertainment",1,0,0,392
"Sophisticats",4210273,51.5289985418671,-0.132273558057851,"Entertainment",1,0,0,393
"A 1 Golf Range",4240292,51.6559987910235,-0.246858032416529,"Sports",0,0,1,394
"Sunbury Conservative Club",4250314,51.4059156632249,-0.412804423140373,"Entertainment",1,0,0,395
"Hammersmith Club Society Ltd",4250314,51.4897540306429,-0.230186643666982,"Entertainment",1,0,0,396
"Berkeley Entertainments",4210273,51.583228507167,-0.322557306365198,"Entertainment",1,0,0,397
"Addington Palace Golf Club",4240292,51.3551968011292,-0.0429501790732837,"Sports",0,0,1,398
"Performing Artistes",4210273,51.518467345902,-0.14240483570863,"Entertainment",1,0,0,399
"93 Feet East",4250312,51.5217197210124,-0.0715175659616242,"Entertainment",1,0,0,400
"The Association of Ukrainians in Great Britain",4250314,51.5060271596003,-0.211011018101287,"Entertainment",1,0,0,401
"Mile End Climbing Wall",4240291,51.5277038044168,-0.0396992080539995,"Sports",0,0,1,402
"Dorset Social Club",4250314,51.5300843432996,-0.0724861838062558,"Entertainment",1,0,0,403
"Barnet Burnt Oak Leisure Centre",4240293,51.6049941442334,-0.255378044638645,"Sports",0,0,1,404
"Hillingdon Canal Club",4250314,51.5420247319935,-0.487848461667099,"Entertainment",1,0,0,405
"Fitness First",4240293,51.514827400704,-0.109438619009889,"Sports",0,0,1,406
"Vario Creative Ltd",4210273,51.4228183185809,-0.146688595615774,"Entertainment",1,0,0,407
"Buzz Bingo",4220278,51.4264732511345,-0.166952569816617,"Gambling",0,1,0,408
"The Royal British Legion",4250314,51.5027963866152,0.0459883393435393,"Entertainment",1,0,0,409
"E J Casting Ltd",4210273,51.4776827946711,-0.105655266274461,"Entertainment",1,0,0,410
"D K Loud Speaker Services",4210273,51.5494852631894,0.201295879482534,"Entertainment",1,0,0,411
"Bannatyne Health & Fitness",4240293,51.5361038974347,-0.190885226716051,"Sports",0,0,1,412
"Park Avenue",4250312,51.4580179219658,-0.305545606413002,"Entertainment",1,0,0,413
"Loxford Social Club",4250314,51.5492556003121,0.0922235428902807,"Entertainment",1,0,0,414
"Bungee Fly Ltd",4230285,51.5457221293316,-0.19648896961938,"Sports",0,0,1,415
"Ivy Leaf Club",4250314,51.5436021746305,-0.483267964702191,"Entertainment",1,0,0,416
"Gold's Gym",4240293,51.4695927111761,-0.366359870195503,"Sports",0,0,1,417
"Plumstead Radical Club",4250314,51.4893554045716,0.0851152055849559,"Entertainment",1,0,0,418
"The Lodge",4240292,51.3610890892003,0.161593929670033,"Sports",0,0,1,419
"Hampton Social Club",4250314,51.4164665579942,-0.372358810962083,"Entertainment",1,0,0,420
"Stressfree the Venue Transformers",4210273,51.5207426749662,-0.122088820674953,"Entertainment",1,0,0,421
"Prince Edward Theatre",4250315,51.5137531720211,-0.130951559645989,"Entertainment",1,0,0,422
"West Middlesex Golf Club",4240292,51.5129731445075,-0.354380327126162,"Sports",0,0,1,423
"William Penn Leisure Centre",4240293,51.639167025613,-0.498464041860024,"Sports",0,0,1,424
"Virgin Active Health Club",4240293,51.4210754366498,-0.21009436536443,"Sports",0,0,1,425
"Grosvenor Casinos",4220280,51.5174234326137,-0.130469804552916,"Gambling",0,1,0,426
"The Jane Nightwork Company",4210273,51.4994675039737,-0.216641906117647,"Entertainment",1,0,0,427
"Platform Films & Video Ltd",4210273,51.5276895596548,-0.123504153830711,"Entertainment",1,0,0,428
"Trent Park Golf Club",4240292,51.6492458625418,-0.131193276749705,"Sports",0,0,1,429
"Nikao Health & Fitness",4240293,51.5872255575985,-0.219993688534332,"Sports",0,0,1,430
"Oversea Pang's Clansman Association",4250314,51.5116902115103,-0.130156890610963,"Entertainment",1,0,0,431
"The Royal British Legion",4250314,51.4691264714862,-0.32515283476012,"Entertainment",1,0,0,432
"Circus Tavern",4210273,51.485827175845,0.246422968979512,"Entertainment",1,0,0,433
"Eagle London",4250312,51.4862033230552,-0.119345615023547,"Entertainment",1,0,0,434
"St Monica's R C Social Club Centre",4250314,51.6220597862554,-0.121477014418693,"Entertainment",1,0,0,435
"G E M S Performance Electronics",4210820,51.4156873443325,-0.53093192466055,"Entertainment",1,0,0,436
"Mecca Bingo",4220278,51.5972404832734,-0.10690755365129,"Gambling",0,1,0,437
"Egham Constitutional Club",4250314,51.431783945549,-0.54713481936469,"Entertainment",1,0,0,438
"Adam Ants Parties",4210273,51.618975282718,-0.260104350960496,"Entertainment",1,0,0,439
"151 Club",4250312,51.4878545371061,-0.167234409387976,"Entertainment",1,0,0,440
"Talking Heads",4210273,51.4578086269624,-0.195812175742235,"Entertainment",1,0,0,441
"Hampton Court Palace Golf Club",4240292,51.3997137444,-0.314472156277369,"Sports",0,0,1,442
"Woodside Park Club Ltd",4250314,51.6198457345648,-0.19260987974513,"Entertainment",1,0,0,443
"Mecca Bingo",4220278,51.5325839700226,0.137014686617778,"Gambling",0,1,0,444
"Absolute Corporate Events",4210273,51.5273020704001,-0.0889203881844514,"Entertainment",1,0,0,445
"South Norwood & Woodside Social Club",4250314,51.3933246353703,-0.0683186925702133,"Entertainment",1,0,0,446
"Paddy Power",4220279,51.5164098008198,-0.209595340289025,"Gambling",0,1,0,447
"Chingford Golf Range",4240292,51.6309824135971,-0.0166386536083591,"Sports",0,0,1,448
"Burhill Golf Club",4240292,51.3527324279848,-0.417299654907913,"Sports",0,0,1,449
"The Hurlingham Club",4250314,51.4662556379872,-0.200574157328766,"Entertainment",1,0,0,450
"Dartford Working Mens Club",4250314,51.4456570961499,0.213710471669668,"Entertainment",1,0,0,451
"Personal Appearances",4210273,51.6271746634455,-0.175531430674612,"Entertainment",1,0,0,452
"Chorleywood Club",4250314,51.6422959323418,-0.502102403575,"Entertainment",1,0,0,453
"Michael Paul Children's Entertainer",4210273,51.3535302187446,-0.0655120714265375,"Entertainment",1,0,0,454
"Buzz Bingo",4220278,51.5864632568616,-0.332608991319657,"Gambling",0,1,0,455
"Menier Chocolate Factory",4250315,51.4734716791454,-0.0707523320674594,"Entertainment",1,0,0,456
"Auntie Julie",4210273,51.6546263856352,-0.446098486607682,"Entertainment",1,0,0,457
"Clermont Club",4220280,51.5092723113905,-0.146655361609646,"Gambling",0,1,0,458
"South Croydon Conservative Club",4250314,51.3608857435889,-0.0962145583728526,"Entertainment",1,0,0,459
"Academy Costumes",4210273,51.5018908089304,-0.102317376815817,"Entertainment",1,0,0,460
"Acol Bridge Club",4250314,51.5456470153828,-0.191025932997695,"Entertainment",1,0,0,461
"Danebury Alton Residents Association",4250314,51.451810227706,-0.249767308780709,"Entertainment",1,0,0,462
"Gerry's Club",4250314,51.5124429529249,-0.131515365358229,"Entertainment",1,0,0,463
"100 Club Ltd",4250314,51.5162130786358,-0.135330419586713,"Entertainment",1,0,0,464
"City Edge Within Hackney Community College",4250762,51.5307330370753,-0.0793042991186739,"Entertainment",1,0,0,465
"New Barnet Leisure Centre",4240304,51.6527372063958,-0.169013230304706,"Sports",0,0,1,466
"Mazenod Social Club",4250314,51.5409679659512,-0.193749526793947,"Entertainment",1,0,0,467
"Southwark Playhouse",4250315,51.4974994889328,-0.0982496718146789,"Entertainment",1,0,0,468
"The Ministry of Fun Ltd",4210273,51.4899358743798,-0.0980861973626007,"Entertainment",1,0,0,469
"Montrose Park Club",4250314,51.4360825964767,0.114183913185767,"Entertainment",1,0,0,470
"Hornimans Adventure Playground",4210271,51.5244600172548,-0.209726479352641,"Entertainment",1,0,0,471
"Craxton Studios",4250315,51.5582393759836,-0.194724342126681,"Entertainment",1,0,0,472
"Dartford Masonic Club",4250314,51.4468962278047,0.207135781399862,"Entertainment",1,0,0,473
"Lewis & Kaye Hire Ltd",4210273,51.5195119378682,-0.25190807291349,"Entertainment",1,0,0,474
"Civil Service Club",4250314,51.5065827503092,-0.12566834701037,"Entertainment",1,0,0,475
"Real Time",4220277,51.4123427772835,-0.301640977308581,"Entertainment",1,0,0,476
"A S Bourne & Son",4230321,51.3468829612551,-0.274771577597112,"Sports",0,0,1,477
"Kinetic Theatre Company",4210273,51.4091938043533,-0.189445454786943,"Entertainment",1,0,0,478
"Carl Rosa Productions Ltd",4210273,51.5315525818008,-0.0646067495240756,"Entertainment",1,0,0,479
"Amazing Spangles",4210273,51.596410109636,-0.391879364898807,"Entertainment",1,0,0,480
"Mecca Bingo",4220278,51.3757672235926,-0.1033276795277,"Gambling",0,1,0,481
"Grandstand Hospitality Ltd",4210273,51.5044731577088,-0.147974012627784,"Entertainment",1,0,0,482
"Greenwich Theatre Ltd",4250315,51.4794639129617,-0.007648149136882,"Entertainment",1,0,0,483
"Dagenham Trades Hall",4250314,51.5403400917712,0.157949853361519,"Entertainment",1,0,0,484
"Dagenham Conservative Club",4250314,51.5405752014139,0.15934541858216,"Entertainment",1,0,0,485
"South Ealing Conservative & Unionist Club Ltd",4250314,51.5045906007793,-0.306873343287029,"Entertainment",1,0,0,486
"Andrew Robson Bridge Club",4250314,51.4762107296243,-0.200600029005851,"Entertainment",1,0,0,487
"Romford Conservative Club",4250314,51.5866081214048,0.197920512253381,"Entertainment",1,0,0,488
"Scarabeus Theatre Ltd",4210273,51.5275178930484,-0.0823085262045444,"Entertainment",1,0,0,489
"Mecca Bingo",4220278,51.3854747640989,-0.188855468655577,"Gambling",0,1,0,490
"Teddington Constitutional Club",4250314,51.427330552072,-0.341522067535669,"Entertainment",1,0,0,491
"Playground Performing Arts Studio",4250315,51.5178043068477,-0.224429634832614,"Entertainment",1,0,0,492
"Wax Chandlers",4250762,51.5158254708774,-0.0954254064415774,"Entertainment",1,0,0,493
"Harrow Leisure Centre (Harrow)",4240293,51.5925242008202,-0.327441026279434,"Sports",0,0,1,494
"Lower Morden Equestrian Centre",4230321,51.3873181479115,-0.233020587255496,"Sports",0,0,1,495
"William Hill",4220279,51.610573967211,-0.258172536036192,"Gambling",0,1,0,496
"Darrick Wood Pool",4240304,51.3686543908273,0.0687942597772341,"Sports",0,0,1,497
"New Chiswick Swimming Pool",4240304,51.4818676458672,-0.255027132992358,"Sports",0,0,1,498
"Hampstead Theatre",4250315,51.5438234382611,-0.173734617611095,"Entertainment",1,0,0,499
"Upstairs at the Gatehouse",4250315,51.5717928905545,-0.150390880874819,"Entertainment",1,0,0,500
"William Hill",4220279,51.604521422375,-0.340227805384052,"Gambling",0,1,0,501
"Vue Cinemas",4250308,51.6038347340708,-0.173311872674161,"Entertainment",1,0,0,502
"Odeon Cinemas",4250308,51.4320903845513,-0.128056962189986,"Entertainment",1,0,0,503
"Odeon Cinemas",4250308,51.4905751035035,0.0127412864845324,"Entertainment",1,0,0,504
"Rio Cinema",4250308,51.5496306555489,-0.0757246994986962,"Entertainment",1,0,0,505
"Odeon Cinemas",4250308,51.4069378957244,-0.0314674992739136,"Entertainment",1,0,0,506
"Golden Oldie Discos",4210276,51.500611334145,-0.543621898947193,"Entertainment",1,0,0,507
"Odeon Cinemas",4250308,51.5451478245985,-0.475558730202955,"Entertainment",1,0,0,508
"Odeon Cinemas",4250308,51.4199833493183,-0.204894591761244,"Entertainment",1,0,0,509
"Odeon Cinemas",4250308,51.4651486881142,-0.213926056247907,"Entertainment",1,0,0,510
"Odeon Cinemas",4250308,51.6328427535718,-0.0369033190039714,"Entertainment",1,0,0,511
"Mobile Disco",4210276,51.4687843626613,-0.402060229596786,"Entertainment",1,0,0,512
"Hits Discos",4210276,51.3121882176362,0.0315624038515161,"Entertainment",1,0,0,513
"R Y Sounds with DJ Rick",4210276,51.5560128282697,0.131484001631081,"Entertainment",1,0,0,514
"As You Like It",4210276,51.4024985943566,0.0080954134314212,"Entertainment",1,0,0,515
"Vue Cinemas",4250308,51.3729971139423,-0.101085814367671,"Entertainment",1,0,0,516
"Vue Cinemas",4250308,51.5326766894249,0.134935523934566,"Entertainment",1,0,0,517
"Double D Discos & Karaoke",4210276,51.4257105887557,-0.526672255086218,"Entertainment",1,0,0,518
"Rich Mix Cinema",4250308,51.524357787561,-0.0733017682568419,"Entertainment",1,0,0,519
"Apollo Disco",4210276,51.4242705842271,-0.437008988652595,"Entertainment",1,0,0,520
"Mick's Discos & Children's Entertainer",4210276,51.3878092517474,0.115134350343369,"Entertainment",1,0,0,521
"Odeon Cinemas",4250308,51.5104537879803,-0.129314023224138,"Entertainment",1,0,0,522
"Curzon Bloomsbury Cinema",4250308,51.5241502207957,-0.123173950299224,"Entertainment",1,0,0,523
"Vue Cinemas",4250308,51.511518806734,-0.129558625573563,"Entertainment",1,0,0,524
"Unique Sensation",4210276,51.3860354477517,-0.158479773410208,"Entertainment",1,0,0,525
"Gate Picturehouse",4250308,51.5087393419788,-0.197272451550305,"Entertainment",1,0,0,526
"William Hill",4220279,51.5938084496278,-0.334915636283212,"Gambling",0,1,0,527
"Secrets Clubs",4250312,51.4946448505576,-0.231308172477424,"Entertainment",1,0,0,528
"Scala",4250312,51.5305762856285,-0.120703789875452,"Entertainment",1,0,0,529
"William Hill",4220279,51.2952284461507,-0.328212611140868,"Gambling",0,1,0,530
"William Hill",4220279,51.3996154961646,-0.241689928253473,"Gambling",0,1,0,531
"The Royal Court Theatre",4210273,51.4926102378256,-0.156421077661144,"Entertainment",1,0,0,532
"Surbiton Golf Club",4240292,51.3699567174708,-0.324443657137846,"Sports",0,0,1,533
"Perivale Residents Association",4250314,51.5352416552197,-0.326037775095018,"Entertainment",1,0,0,534
"Whitechapel Sports Centre",4240293,51.5200076877959,-0.0614350088008885,"Sports",0,0,1,535
"The Royal British Legion",4250314,51.5682469481418,-0.349153266065815,"Entertainment",1,0,0,536
"Mistrymusic Entertainment",4210273,51.5608767399491,-0.114275528161288,"Entertainment",1,0,0,537
"Crystal Palace National Sports Centre",4240293,51.4189988252573,-0.0677685853293286,"Sports",0,0,1,538
"Banstead Village Club Ltd",4250314,51.3218515310424,-0.20344698452592,"Entertainment",1,0,0,539
"Tadworth Leisure & Community Centre",4240293,51.3028100644736,-0.232440422122186,"Sports",0,0,1,540
"Bill Kenwright Ltd",4210273,51.5208437799155,-0.179843230409352,"Entertainment",1,0,0,541
"Richmond Hill Health Club",4240293,51.4590013584372,-0.305149321237331,"Sports",0,0,1,542
"William Hill",4220279,51.6148224490406,-0.275323898305033,"Gambling",0,1,0,543
"Polish Theatre",4250315,51.493521491884,-0.237446679308579,"Entertainment",1,0,0,544
"Biggin Hill Social & Sports Club",4250314,51.3104375386736,0.0352243408709274,"Entertainment",1,0,0,545
"The Royal British Legion",4250314,51.455684416921,-0.432707894339192,"Entertainment",1,0,0,546
"Upton Park Snooker",4240301,51.5363160098094,0.0343981794596194,"Sports",0,0,1,547
"The Royal British Legion",4250314,51.2992574259619,-0.491400561805436,"Entertainment",1,0,0,548
"Balmoral Highlanders",4210273,51.6345595119851,-0.0628403711663181,"Entertainment",1,0,0,549
"The Belvedere Club",4250314,51.4914783510974,0.145888747242208,"Entertainment",1,0,0,550
"P R S UK Ltd",4210273,51.3301928833396,-0.3613913807856,"Entertainment",1,0,0,551
"William Hill",4220279,51.3827733967499,-0.287905179492264,"Gambling",0,1,0,552
"William Hill",4220279,51.4110625414527,-0.302033525846676,"Gambling",0,1,0,553
"Gymboree Play & Music",4210271,51.5481428777448,-0.18261929927363,"Entertainment",1,0,0,554
"Richmond Shakespeare Society at the Mary Wallace Theatre",4210273,51.4465180444077,-0.325672189929633,"Entertainment",1,0,0,555
"Richmond Indoor Bowls Club Ltd",4240290,51.4621667025241,-0.289052883962344,"Sports",0,0,1,556
"William Hill",4220279,51.4059477319373,0.0140985823382235,"Gambling",0,1,0,557
"Savile Club",4250314,51.5123786377982,-0.149181053026011,"Entertainment",1,0,0,558
"Shaun & Joe Bar",4250312,51.509759169697,-0.12878189021769,"Entertainment",1,0,0,559
"Ryde Racing",4220279,51.5946129358204,-0.401846856438353,"Gambling",0,1,0,560
"Romford Bowls Club",4240290,51.5796271977329,0.191610950459431,"Sports",0,0,1,561
"Sandown Park Racecourse",4240298,51.3736479467925,-0.362915137567299,"Sports",0,0,1,562
"Hanwell Conservative Club",4250314,51.5087447340482,-0.333219899155615,"Entertainment",1,0,0,563
"William Hill",4220279,51.4269593593622,0.0138428362157716,"Gambling",0,1,0,564
"Thamesmere Leisure Centre",4240293,51.5077801581235,0.109235515291212,"Sports",0,0,1,565
"Colfe's Leisure Centre Within Colfe's School",4240293,51.4494366888214,0.0193926728380155,"Sports",0,0,1,566
"William Hill",4220279,51.5765300415462,0.0679015865271235,"Gambling",0,1,0,567
"William Hill",4220279,51.376225464973,-0.0185455329476001,"Gambling",0,1,0,568
"Wraysbury Village Club",4250314,51.4581596326922,-0.555999145717859,"Entertainment",1,0,0,569
"Crayford Social Club",4250314,51.4523968769094,0.179909495548533,"Entertainment",1,0,0,570
"Theatre of Comedy",4250315,51.5162749314064,-0.126120862289337,"Entertainment",1,0,0,571
"Petts Wood Snooker & Pool Lounge",4240301,51.3883013485577,0.0739779169047524,"Sports",0,0,1,572
"The Royal British Legion",4250314,51.4648161035325,-0.362886725350355,"Entertainment",1,0,0,573
"The Royal British Legion",4250314,51.4583039690466,-0.208645583735159,"Entertainment",1,0,0,574
"Gate Theatre",4250315,51.5095280720673,-0.197688052097454,"Entertainment",1,0,0,575
"Shene Sports & Fitness Centre",4240293,51.4627917094429,-0.260030428231952,"Sports",0,0,1,576
"Nic Picot Entertainment",4210273,51.6166212003502,-0.364313044101973,"Entertainment",1,0,0,577
"The Leisure Centre & Pool in Park",4240293,51.310157691758,-0.556221717874708,"Sports",0,0,1,578
"St Dunstans Leisure",4240293,51.4438163960267,-0.0287451272353714,"Sports",0,0,1,579
"Shirley Park Golf Club",4240292,51.3753321876711,-0.0629981847464043,"Sports",0,0,1,580
"Shepperton Sports & Social Club",4250314,51.3964976620327,-0.446810573538338,"Entertainment",1,0,0,581
"Sobell Leisure Centre",4240293,51.5589363023617,-0.111600326677699,"Sports",0,0,1,582
"Attic Theatre Company",4210273,51.4086737331751,-0.162559924455434,"Entertainment",1,0,0,583
"Hospitality Line",4210273,51.411292090446,0.0753806373007391,"Entertainment",1,0,0,584
"The Edmonton Working Men's Conservative Club",4250314,51.6349750661796,-0.0520857391483669,"Entertainment",1,0,0,585
"Boro Bethnal Green Working Mens Club",4250314,51.528085919254,-0.0637878379033572,"Entertainment",1,0,0,586
"Double R Racing",4210820,51.3283706510787,-0.53974063198896,"Entertainment",1,0,0,587
"Brent Valley Golf Course & Fitness Centre",4240292,51.5159299458503,-0.34022155918477,"Sports",0,0,1,588
"Serious",4210273,51.5247723900391,-0.105935991263247,"Entertainment",1,0,0,589
"Leyton House Working Mens Club & Institute",4250314,51.5504178244405,-0.0028359582740485,"Entertainment",1,0,0,590
"Private Drama",4210273,51.4910786420492,-0.244727478389009,"Entertainment",1,0,0,591
"Wimbledon Park Golf Club",4240292,51.4345716059917,-0.206221895616068,"Sports",0,0,1,592
"Tara Arts",4250315,51.4421758507677,-0.188455069097438,"Entertainment",1,0,0,593
"Pop Up Creative Solutions",4210273,51.6521178478972,0.0584162240775385,"Entertainment",1,0,0,594
"Banstead County Cricket Club",4250314,51.3298852980071,-0.212477669505082,"Entertainment",1,0,0,595
"The Outside Edge Theatre Company",4210273,51.516866519196,-0.0596370016236583,"Entertainment",1,0,0,596
"Crockfords Casino",4220280,51.506441925355,-0.149075793032005,"Gambling",0,1,0,597
"Croydon Active Paddlers Canoe & Kayak Club",4230287,51.3451796451498,-0.062474933307024,"Sports",0,0,1,598
"Virgin Active Health Club",4240293,51.5809703903813,-0.12296993188041,"Sports",0,0,1,599
"Groves Artists Ltd",4210273,51.4613287201364,-0.205331339682364,"Entertainment",1,0,0,600
"Buzz Bingo",4220278,51.6551889016608,-0.27511479570482,"Gambling",0,1,0,601
"The Sixteen",4210273,51.496657250925,-0.128625554028059,"Entertainment",1,0,0,602
"Paul Holman Associates",4210273,51.5553651168161,-0.400078151872558,"Entertainment",1,0,0,603
"The Little Gym",4210271,51.476508894768,-0.267569759081671,"Entertainment",1,0,0,604
"Burway Rowing Club",4250314,51.4040777818949,-0.490130882317531,"Entertainment",1,0,0,605
"Nuffield Fitness & Wellbeing Centres",4240293,51.6170633832905,-0.0055738780124321,"Sports",0,0,1,606
"Traq Motor Racing",4240297,51.3890041238024,-0.14265385919423,"Sports",0,0,1,607
"Cherry Ripe Management",4210273,51.5653306555558,-0.235867348966704,"Entertainment",1,0,0,608
"The Manor",4240293,51.5601763271628,-0.219678060935053,"Sports",0,0,1,609
"High Performance UK",4210273,51.4310832761691,-0.505700838878201,"Entertainment",1,0,0,610
"Namco Funscape",4220277,51.5028228374084,-0.119256546748946,"Entertainment",1,0,0,611
"Fitness First",4240293,51.5168867553826,-0.0783446307726002,"Sports",0,0,1,612
"Gambado Chelsea",4210273,51.4741587036309,-0.183574036117278,"Entertainment",1,0,0,613
"Phantom Music Management Ltd",4210273,51.5114867257122,-0.136016289204643,"Entertainment",1,0,0,614
"Wimbledon Common Golf Club",4240292,51.4258457606124,-0.235044643932348,"Sports",0,0,1,615
"Greenwich Toy & Leisure Library",4210271,51.4905770004275,0.116315317458869,"Entertainment",1,0,0,616
"2010 Club",4250314,51.4080242963691,-0.17815825676972,"Entertainment",1,0,0,617
"The Royal British Legion",4250314,51.3698628736709,-0.498597711012505,"Entertainment",1,0,0,618
"Seasons Textiles Ltd",4210273,51.532054689178,-0.271828784270631,"Entertainment",1,0,0,619
"Lorna Dallas",4210273,51.3392382725044,-0.209572626228585,"Entertainment",1,0,0,620
"The Royal British Legion",4250314,51.5759671618045,-0.426760116404383,"Entertainment",1,0,0,621
"Richard Linton",4210273,51.3906974656123,-0.281874500287255,"Entertainment",1,0,0,622
"New Evaristo Club",4250314,51.5144702320495,-0.131368993887685,"Entertainment",1,0,0,623
"The Royal British Legion",4250314,51.3587425251282,-0.299567950621497,"Entertainment",1,0,0,624
"Bradbourne Riding & Training Centre",4230321,51.2865429120324,0.181052088459173,"Sports",0,0,1,625
"Egham United Services Club",4250314,51.4300917693736,-0.553546738842119,"Entertainment",1,0,0,626
"Romford War Memorial Social Club",4250314,51.5761440035299,0.185212811233565,"Entertainment",1,0,0,627
"Romford United Services & Social Club",4250314,51.5785592101144,0.17661526523403,"Entertainment",1,0,0,628
"Romford Snooker Club",4240301,51.5762583050405,0.181631786817422,"Sports",0,0,1,629
"Romford Golf Club",4240292,51.5874267547114,0.199872824022252,"Sports",0,0,1,630
"The Royal British Legion",4250314,51.6385449258555,-0.471157435250587,"Entertainment",1,0,0,631
"Malden Golf Club",4240292,51.4108838707455,-0.252560054160746,"Sports",0,0,1,632
"M P C Entertainment",4210273,51.5349821847731,-0.190453880714108,"Entertainment",1,0,0,633
"Bannatyne Health & Fitness",4240293,51.4968161047978,-0.12618428598773,"Sports",0,0,1,634
"Brookfarm Fishery",4230282,51.6437287783753,0.203090250921487,"Sports",0,0,1,635
"The Little Gym",4210271,51.4630099620411,-0.189516060049581,"Entertainment",1,0,0,636
"The Royal British Legion",4250314,51.5908267752054,0.235568800009213,"Entertainment",1,0,0,637
"The Royal British Legion",4250314,51.548105878264,0.200953794681029,"Entertainment",1,0,0,638
"Rosco",4210273,51.4247546636372,-0.0358802867064283,"Entertainment",1,0,0,639
"Royal Fusiliers Association",4250314,51.50839139755,-0.0752147417979437,"Entertainment",1,0,0,640
"Brockley Social Club",4250314,51.4612380302322,-0.0353363804694404,"Entertainment",1,0,0,641
"The Royal British Legion",4250314,51.3747702659704,0.011436651917986,"Entertainment",1,0,0,642
"The Royal British Legion",4250314,51.4873583655996,-0.103957913747872,"Entertainment",1,0,0,643
"Mark Goucher",4210273,51.5115530250202,-0.126631684586333,"Entertainment",1,0,0,644
"The Royal British Legion",4250314,51.6497163886349,-0.437261046190256,"Entertainment",1,0,0,645
"Coulsdon Manor Leisure Club",4240293,51.3186985851018,-0.122832002643876,"Sports",0,0,1,646
"Platinum Lace",4250312,51.5105148274116,-0.133144899565565,"Entertainment",1,0,0,647
"Chislehurst Golf Club",4240292,51.4112239192628,0.0653947364245242,"Sports",0,0,1,648
"Reform Club",4250314,51.5066081450424,-0.133463093387551,"Entertainment",1,0,0,649
"Bowlane Entertainment",4210273,51.6169152413813,0.0401964077925849,"Entertainment",1,0,0,650
"Brent School Old Boys Social Club",4250314,51.4424620594777,0.242696629764187,"Entertainment",1,0,0,651
"E C 1 Music Agency",4210273,51.5128790537355,-0.132529415434674,"Entertainment",1,0,0,652
"North Harrow Home Guard Club",4250314,51.5870403392881,-0.363903211000549,"Entertainment",1,0,0,653
"E T C Venues",4250762,51.4976060387586,-0.0976113208811718,"Entertainment",1,0,0,654
"The Royal British Legion",4250314,51.5594291943194,0.136476861330368,"Entertainment",1,0,0,655
"Burgh Heath Comrades & Social Club",4250314,51.3042782047786,-0.219239948142014,"Entertainment",1,0,0,656
"Bromley Little Theatre Ltd",4250315,51.4075678075071,0.0161109462246096,"Entertainment",1,0,0,657
"Epsom R D A",4230321,51.3526314513112,-0.274495344085365,"Sports",0,0,1,658
"Redbridge Social Centre",4250314,51.5799297328626,0.0597970561909097,"Entertainment",1,0,0,659
"Mattie the Clown",4210273,51.5241463249353,-0.104477169392575,"Entertainment",1,0,0,660
"The Royal British Legion",4250314,51.5187623241467,-0.194700250303488,"Entertainment",1,0,0,661
"The Royal British Legion",4250314,51.6480891719015,-0.041462964422142,"Entertainment",1,0,0,662
"The Royal British Legion",4250314,51.6442832464881,-0.163523278250986,"Entertainment",1,0,0,663
"Friern Barnet Club",4250314,51.6169082860867,-0.151285854798922,"Entertainment",1,0,0,664
"The Royal British Legion",4250314,51.5878364066611,-0.145899483842135,"Entertainment",1,0,0,665
"The Rose Playhouse",4210273,51.5071771575674,-0.0954704878674666,"Entertainment",1,0,0,666
"The Royal British Legion",4250314,51.3833079973979,-0.108635080702256,"Entertainment",1,0,0,667
"Brick Lane Music Hall",4250315,51.5026793739961,0.0428995600387295,"Entertainment",1,0,0,668
"The Magic Circle",4210273,51.5265470127543,-0.135314796260808,"Entertainment",1,0,0,669
"Studio Wayne McGregor",4210273,51.5475830665978,-0.0234207630983336,"Entertainment",1,0,0,670
"Ottershaw Social Club",4250314,51.3645732264759,-0.530344261734078,"Entertainment",1,0,0,671
"Upbeat Management",4210273,51.4543943889356,-0.0337158758918076,"Entertainment",1,0,0,672
"New Studio Club",4250314,51.4226109566333,-0.0063849086909713,"Entertainment",1,0,0,673
"Rena Spa Within N Y X Holborn Hotel",4240293,51.5193592297382,-0.121221791274566,"Sports",0,0,1,674
"Coldharbour Leisure Centre",4240293,51.4366983811356,0.0543740906505968,"Sports",0,0,1,675
"Hayes & Harlington Conservative Club",4250314,51.5137329602558,-0.420776779870529,"Entertainment",1,0,0,676
"The Gaslight Club",4250314,51.5081293661362,-0.136383882717439,"Entertainment",1,0,0,677
"The Blackheath Halls",4240302,51.4643791642005,0.0096015800051557,"Sports",0,0,1,678
"Bloomsbury Theatre",4250315,51.5250678971116,-0.132780382468133,"Entertainment",1,0,0,679
"Bannatyne Health & Fitness",4240293,51.5241496989931,-0.127642779388647,"Sports",0,0,1,680
"Buckhurst Hill Sports & Social Club",4250314,51.6250076401468,0.0438679835348593,"Entertainment",1,0,0,681
"Bigfoot Theatre Productions",4210273,51.4646547682622,-0.156569005207882,"Entertainment",1,0,0,682
"East Ham Leisure Centre",4240293,51.5323238258005,0.0565398972896136,"Sports",0,0,1,683
"Mary Ward House",4250762,51.5252610503303,-0.127409784197341,"Entertainment",1,0,0,684
"The Southgate Members' Club Ltd",4250314,51.6325115745483,-0.128963744839729,"Entertainment",1,0,0,685
"Regent's Park Open Air Theatre",4250315,51.5272152591682,-0.155398428942171,"Entertainment",1,0,0,686
"Ballantrae Ltd",4210273,51.4752185944447,-0.126911081556245,"Entertainment",1,0,0,687
"Springfield Theatre Club",4250315,51.605574619238,-0.122918588910279,"Entertainment",1,0,0,688
"Millfield Arts Centre",4250315,51.6159523069784,-0.0802441963939518,"Entertainment",1,0,0,689
"Boogie Lounge",4250312,51.3335604999388,-0.26734467122001,"Entertainment",1,0,0,690
"Boodle's",4250314,51.5069070574517,-0.139258124739085,"Entertainment",1,0,0,691
"The Leatherhead Golf Club",4240292,51.3209001009331,-0.330580258529261,"Sports",0,0,1,692
"Thornton Heath Leisure Centre",4240293,51.3992293381701,-0.0966786741066365,"Sports",0,0,1,693
"Lee Valley Riding Centre",4230321,51.5665278981313,-0.0420409707936795,"Sports",0,0,1,694
"Hornchurch Conservative Club",4250314,51.5634520915501,0.219766711327972,"Entertainment",1,0,0,695
"Glynis Henderson Productions",4210273,51.5168751218795,-0.141802286893991,"Entertainment",1,0,0,696
"Edens",4220279,51.5085922776077,-0.47329182558068,"Gambling",0,1,0,697
"Will to Win",4240305,51.5059646446123,-0.309243199827031,"Sports",0,0,1,698
"Peter May Sports Centre",4240293,51.603065296149,-0.0089455272245506,"Sports",0,0,1,699
"Bromley Common Liveries Ltd",4230321,51.3803687015508,0.0392447962956074,"Sports",0,0,1,700
"Harrier Centre",4240293,51.3582660081784,-0.265105617532682,"Sports",0,0,1,701
"Gameworld",4220277,51.5323274189512,-0.106574009201136,"Entertainment",1,0,0,702
"Epsom Common Working Mens Club",4250314,51.3328021049356,-0.283139483705487,"Entertainment",1,0,0,703
"Epsom Club",4250314,51.3325534048444,-0.26128173693859,"Entertainment",1,0,0,704
"Epsom Bowling Club",4240290,51.3291504722184,-0.262242984442657,"Sports",0,0,1,705
"Leyton Gym",4240293,51.5739840576084,-0.0105774540868208,"Sports",0,0,1,706
"Topsy Turvy World",4210271,51.5784795215722,-0.225330526457447,"Entertainment",1,0,0,707
"Tiller Leisure Centre",4240293,51.4961289244227,-0.0219219522370909,"Sports",0,0,1,708
"Spirit Health Club Heathrow",4240293,51.4994947303503,-0.45426141751115,"Sports",0,0,1,709
"Pop Star Parties",4210273,51.4105651190752,-0.417489239532316,"Entertainment",1,0,0,710
"Kingston Working Men's Club",4250314,51.4112321665907,-0.299467666466114,"Entertainment",1,0,0,711
"Buzz Bingo",4220278,51.4438841029581,-0.405718203040177,"Gambling",0,1,0,712
"Wimbledon Offices Ltd",4250762,51.4202498771243,-0.208973130473831,"Entertainment",1,0,0,713
"Orpington Conservative Club",4250314,51.3726484528844,0.0970498518454319,"Entertainment",1,0,0,714
"Voces Contabiles Music",4210273,51.5164872280791,-0.0963058294140842,"Entertainment",1,0,0,715
"Uxbridge Sports Club",4250314,51.5532831970382,-0.468393504138376,"Entertainment",1,0,0,716
"Merlin Entertainments",4210273,51.5826563363004,-0.3693722371246,"Entertainment",1,0,0,717
"Mecca Bingo",4220278,51.5184835096856,-0.408995422563216,"Gambling",0,1,0,718
"Hacton Park Corner Farm Ltd",4230321,51.5439753889753,0.233356448117366,"Sports",0,0,1,719
"Tramp",4250312,51.5081976312374,-0.137850962882693,"Entertainment",1,0,0,720
"Rocks Lane Multi Sports Centre",4240293,51.4948368676132,-0.257833785337895,"Sports",0,0,1,721
"Beacon Bingo",4220278,51.5584576028936,-0.216461776811182,"Gambling",0,1,0,722
"Tudor Luncheon Club",4250314,51.5696902479213,-0.389604572717471,"Entertainment",1,0,0,723
"Grovelands Pitch & Putt",4240292,51.6299811717018,-0.116930655759882,"Sports",0,0,1,724
"Mill Hill School Enterprises",4240293,51.6189771688184,-0.230450887048271,"Sports",0,0,1,725
"Wimbledon Bridge Club",4250314,51.418621540006,-0.213111231594956,"Entertainment",1,0,0,726
"Crook Log Leisure Centre",4240293,51.4602488820491,0.124499553195384,"Sports",0,0,1,727
"The Underworld",4250312,51.5391885102139,-0.14199383472883,"Entertainment",1,0,0,728
"Fitness First",4240293,51.5737619195274,0.183080977887061,"Sports",0,0,1,729
"Fitnees First Clapham",4240293,51.4641164430931,-0.16754643824469,"Sports",0,0,1,730
"Uncle Mac's Magic",4210273,51.4292979942607,0.0090976301153054,"Entertainment",1,0,0,731
"York Hall Leisure Centre",4240293,51.5299021517304,-0.0553457729452645,"Sports",0,0,1,732
"The Village Club",4250314,51.3445114803553,-0.0612251495340038,"Entertainment",1,0,0,733
"Fitness First",4240293,51.5060927632142,-0.0847645008676577,"Sports",0,0,1,734
"Puregym London Farringdon",4240293,51.5223551045322,-0.108270615216727,"Sports",0,0,1,735
"Eynsford Riverside Club",4250314,51.3684458125284,0.210673725354003,"Entertainment",1,0,0,736
"Aldersbrook Riding School",4230321,51.5646717981345,0.0461821725407277,"Sports",0,0,1,737
"Hurricane Room",4240301,51.5154369624483,-0.25000308937542,"Sports",0,0,1,738
"Barnehurst Golf Course",4240292,51.4603471682416,0.169217842480069,"Sports",0,0,1,739
"Chipping Barnet Conservative Club Ltd",4250314,51.6525510341756,-0.199307763481202,"Entertainment",1,0,0,740
"Finchley Lido",4240304,51.6044548195433,-0.172420534642114,"Sports",0,0,1,741
"Ultra D J Ltd",4210273,51.5210714972622,-0.108972464105327,"Entertainment",1,0,0,742
"Mile End Snooker Club",4240301,51.5223338288653,-0.0450039458896913,"Sports",0,0,1,743
"Working Mens Club & Institute Union",4250314,51.5457364480725,-0.103474732587888,"Entertainment",1,0,0,744
"Victory Services Club",4250314,51.5138963485364,-0.162205826734343,"Entertainment",1,0,0,745
"Battersea Labour Club & Institute Ltd",4250314,51.4673479240544,-0.170051722054061,"Entertainment",1,0,0,746
"Fitness First",4240293,51.5551912139378,-0.008555767838939,"Sports",0,0,1,747
"Mega Entertainment",4210273,51.6271638003095,-0.268511856204153,"Entertainment",1,0,0,748
"Camden Square Play Centre",4210271,51.5441427645614,-0.132893776739817,"Entertainment",1,0,0,749
"Fitness First",4240293,51.5099837015838,-0.124148190146975,"Sports",0,0,1,750
"Partyman World of Play",4210271,51.5582603864793,-0.316508349133299,"Entertainment",1,0,0,751
"Farnborough Kent Social Club",4250314,51.3588221600437,0.0674319072746507,"Entertainment",1,0,0,752
"Horizons Casino",4220280,51.5109632108582,-0.130244303454234,"Gambling",0,1,0,753
"Avenues Social Club",4250314,51.5623572847843,0.175815431847931,"Entertainment",1,0,0,754
"Mortons",4250314,51.5105599186741,-0.146761629725333,"Entertainment",1,0,0,755
"Cuddington Golf Club",4240292,51.3317158349626,-0.214516647893038,"Sports",0,0,1,756
"Kingfisher Leisure Centre",4240293,51.409622962158,-0.299498609951552,"Sports",0,0,1,757
"George",4250314,51.5094837049594,-0.151503233408792,"Entertainment",1,0,0,758
"Farm Studios",4250315,51.5347846725025,0.236561847721459,"Entertainment",1,0,0,759
"Tooting & Balham United Services Club",4250314,51.4388778439799,-0.156873210645936,"Entertainment",1,0,0,760
"United Services",4250314,51.3623707855014,-0.184667617849876,"Entertainment",1,0,0,761
"Barn Elms Boathouse",4230287,51.4738365964006,-0.225374150287047,"Sports",0,0,1,762
"Vortex Jazz Club",4250312,51.5488100547154,-0.0766824231996445,"Entertainment",1,0,0,763
"Mecca Bingo",4220278,51.4511460515717,0.0467784216347865,"Gambling",0,1,0,764
"Weybridge Equestrian Centre",4230321,51.3779974851065,-0.441243751990365,"Sports",0,0,1,765
"Watford Social Club & Institute Ltd",4250314,51.6573847671237,-0.393148399177747,"Entertainment",1,0,0,766
"Hampton Pool",4240293,51.4184697134979,-0.35802090928261,"Sports",0,0,1,767
"Mount Mascal Stables",4230321,51.4326401721182,0.150165537320652,"Sports",0,0,1,768
"United Services Club",4250314,51.6290886969725,0.0016867717702525,"Entertainment",1,0,0,769
"United Services Club",4250314,51.5960671517708,-0.381972690998428,"Entertainment",1,0,0,770
"Turf Club",4250314,51.5058132378518,-0.132674224710856,"Entertainment",1,0,0,771
"Bets R Us",4220279,51.5969906135587,0.0667517059129423,"Gambling",0,1,0,772
"Mint Street Adventure Playground",4210271,51.5019748811483,-0.0975158361700087,"Entertainment",1,0,0,773
"Moat Mount Outdoor Centre & Campsite",4230770,51.6325954445011,-0.25039903207301,"Sports",0,0,1,774
"Waterside Centre",4250762,51.4060331840303,-0.0755331442622455,"Entertainment",1,0,0,775
"Game Nation",4220277,51.5303912919394,-0.122628934110732,"Entertainment",1,0,0,776
"Hersham Comrades Social Club Ltd",4250314,51.3706513503235,-0.402501932252289,"Entertainment",1,0,0,777
"Home House",4250314,51.5162916844253,-0.156573394976598,"Entertainment",1,0,0,778
"Lyndhurst Club",4250314,51.5343457179907,-0.168562800001154,"Entertainment",1,0,0,779
"Paddy Power",4220279,51.5602748173504,-0.251946824371468,"Gambling",0,1,0,780
"Iona",4250314,51.5645930848005,0.201738437374024,"Entertainment",1,0,0,781
"David Lloyd Leisure Ltd",4240293,51.4955451007885,-0.187671143190684,"Sports",0,0,1,782
"Denny Enterprises",4210273,51.3225472771742,-0.177471284214185,"Entertainment",1,0,0,783
"The Royal British Legion",4250314,51.3776783511163,-0.240806323763838,"Entertainment",1,0,0,784
"Inverness Lodge Social Club Ltd",4250314,51.4863487549072,-0.307498696795436,"Entertainment",1,0,0,785
"Imperial College Boat Club",4230287,51.4698961771033,-0.221106796184359,"Sports",0,0,1,786
"Bannatyne Health & Fitness",4240293,51.6079501431735,-0.0180903927480976,"Sports",0,0,1,787
"The Royal British Legion",4250314,51.3989796329723,-0.353284884430392,"Entertainment",1,0,0,788
"Ivy Leaf Club",4250314,51.5117645821402,-0.475909466836399,"Entertainment",1,0,0,789
"Harrow Hill Golf Course",4240292,51.5773325584143,-0.329698852327813,"Sports",0,0,1,790
"William Hill",4220279,51.3673302399453,0.0561494942072641,"Gambling",0,1,0,791
"Adventure Play Park",4210271,51.5593016571471,-0.149772451432029,"Entertainment",1,0,0,792
"King's College School Sports Ground",4240302,51.3957487984483,-0.230942025271106,"Sports",0,0,1,793
"Hollywood Bowl",4240290,51.6038980020386,-0.172928099564312,"Sports",0,0,1,794
"Iver Golf Club & Academy",4240292,51.512459243766,-0.532359399542093,"Sports",0,0,1,795
"John Orwell Sports Centre",4240293,51.5048494155337,-0.0616317337323323,"Sports",0,0,1,796
"The Hurst Pool",4240293,51.405553252023,-0.363567544668839,"Sports",0,0,1,797
"David Lloyd Leisure Ltd",4240293,51.5556914659204,-0.343881108056768,"Sports",0,0,1,798
"Epsom Conservative Club",4250314,51.3327115177436,-0.261634633460098,"Entertainment",1,0,0,799
"Hersham Golf Club",4240292,51.3762598073748,-0.387851985762823,"Sports",0,0,1,800
"Virgin Active Health Club",4240293,51.5067168291989,-0.0288082876649936,"Sports",0,0,1,801
"Eric Liddell Sports Centre",4240293,51.4379649816885,0.0386422385641312,"Sports",0,0,1,802
"Hurst Farm Livery Stables",4230321,51.4045860107349,-0.548873824128069,"Sports",0,0,1,803
"Shepherd's Bush Club Ltd",4250314,51.500189721703,-0.23525735787312,"Entertainment",1,0,0,804
"Highbury Leisure Centre",4240293,51.5512000995586,-0.0991842347181749,"Sports",0,0,1,805
"Muswel Golf Club",4240292,51.6017219292821,-0.138027274238235,"Sports",0,0,1,806
"Ruislip Park Riding Stables",4230321,51.5915213524986,-0.415703087950542,"Sports",0,0,1,807
"Ilford Conservative Club",4250314,51.5577685919638,0.0685651847513342,"Entertainment",1,0,0,808
"Eltham Conservative & Unionist Club Ltd",4250314,51.4503522384287,0.0623099345076327,"Entertainment",1,0,0,809
"The Leatherhead Theatre",4250315,51.2948280815916,-0.328514016813237,"Entertainment",1,0,0,810
"Fitness Express@physical Culture",4240293,51.4624609014067,-0.209979988940417,"Sports",0,0,1,811
"Better",4240293,51.3374003809434,-0.263339417968265,"Sports",0,0,1,812
"Woodford Golf Club",4240292,51.6120544378099,0.0217649705646926,"Sports",0,0,1,813
"John Styles Entertainer",4210273,51.4301901326021,0.0982882930932812,"Entertainment",1,0,0,814
"J H Promotions Ltd",4210273,51.6049488899997,0.0513863518104137,"Entertainment",1,0,0,815
"Nuffield Fitness & Wellbeing Centres",4240293,51.3307293970883,-0.499402476199399,"Sports",0,0,1,816
"Hypnotist Show",4210273,51.5666704091982,0.0614659764354655,"Entertainment",1,0,0,817
"Aquarius Golf Club",4240292,51.4527889518708,-0.0528270087939179,"Sports",0,0,1,818
"Heights Stables",4230321,51.2901080083902,0.0566276514863014,"Sports",0,0,1,819
"Central Hall Westminster",4250762,51.4999992841815,-0.130116747894132,"Entertainment",1,0,0,820
"Homerton Grove Adventure Playground",4210271,51.5496919010348,-0.0435428162548223,"Entertainment",1,0,0,821
"Century",4250314,51.5121444830215,-0.132141516591232,"Entertainment",1,0,0,822
"H Q Club & Restaurant",4250312,51.5413517127406,-0.146289685241303,"Entertainment",1,0,0,823
"Invisible Blue Ltd",4210273,51.4705618382087,-0.101947425106062,"Entertainment",1,0,0,824
"Metro Golf Centre",4240292,51.6058485113769,-0.224380519618301,"Sports",0,0,1,825
"Nuffield Fitness & Wellbeing Centres",4240293,51.4510053053894,-0.342764148560047,"Sports",0,0,1,826
"Scotch Malt Whisky Society",4250314,51.5193932708356,-0.106951945367528,"Entertainment",1,0,0,827
"Barons Court Theatre",4250315,51.4894312359576,-0.209514456011692,"Entertainment",1,0,0,828
"Maxilla Hall Social Club Ltd",4250314,51.5160777666247,-0.216783051557412,"Entertainment",1,0,0,829
"Finchley Golf Club",4240292,51.6098201654569,-0.202151656416787,"Sports",0,0,1,830
"Barry Dorn",4210273,51.4571436402904,-0.309766652024385,"Entertainment",1,0,0,831
"Laser Mayhem",4210273,51.6533528144706,0.14515604482615,"Entertainment",1,0,0,832
"Spearmint Rhino Europe Ltd",4250825,51.5232663067207,-0.136544373604494,"Entertainment",1,0,0,833
"Streatham Vale Sports & Social Club",4250314,51.4174888848807,-0.139511880418526,"Entertainment",1,0,0,834
"Bexleyheath Working Mens Club",4250314,51.4563867701212,0.142515035785803,"Entertainment",1,0,0,835
"Woodruffe Stables",4230321,51.3070036616955,-0.279435323439221,"Sports",0,0,1,836
"Victor Chandler International",4220279,51.5075709483673,-0.151499951549277,"Gambling",0,1,0,837
"Pindock Productions Ltd",4210273,51.5250531408486,-0.186868808420655,"Entertainment",1,0,0,838
"Littlebourne Farm Equestrian Centre",4230321,51.6111289026373,-0.461840352642939,"Sports",0,0,1,839
"Westside Lawn Tennis Club Ltd",4240305,51.4189575202298,-0.230276224504903,"Sports",0,0,1,840
"The Canal Cafe Theatre",4250315,51.5211708673893,-0.18470227774078,"Entertainment",1,0,0,841
"Anytime Fitness",4240293,51.5028550906835,-0.18831194600659,"Sports",0,0,1,842
"The Royal British Legion",4250314,51.5782555338996,0.18738383961058,"Entertainment",1,0,0,843
"The Upminster Golf Company Ltd",4240292,51.5662794943327,0.257935054961703,"Sports",0,0,1,844
"Solutions Health & Fitness Club",4240293,51.3765571241985,-0.0976910771646296,"Sports",0,0,1,845
"Face F X",4210273,51.4856648384366,-0.255550487363089,"Entertainment",1,0,0,846
"Acton Park Childrens Centre",4210271,51.507624684499,-0.257392177843207,"Entertainment",1,0,0,847
"Nuffield Fitness & Wellbeing Centres",4240293,51.4770621487955,-0.222224865723254,"Sports",0,0,1,848
"Nuffield Fitness & Wellbeing Centres",4240293,51.5241807417443,-0.118343493814091,"Sports",0,0,1,849
"Abbeyfields Equestrian Centre",4230321,51.5385501495546,-0.429391616393796,"Sports",0,0,1,850
"Jive Leisure Promotions Ltd",4210273,51.5431551839279,0.154996722797184,"Entertainment",1,0,0,851
"Avventura",4210273,51.5273620274344,-0.318325793732721,"Entertainment",1,0,0,852
"Coombe Wood Golf Club",4240292,51.4186987530028,-0.276085893562189,"Sports",0,0,1,853
"Mecca Bingo",4220278,51.5794351542364,0.185659378292862,"Gambling",0,1,0,854
"Charcoal Blue",4210273,51.502375635892,-0.106720697758964,"Entertainment",1,0,0,855
"Retail Events",4250762,51.5059817411676,0.0157589272005009,"Entertainment",1,0,0,856
"Chessington Sports Centre",4240293,51.3567714124566,-0.309887188423822,"Sports",0,0,1,857
"LivingWell Health Clubs",4240293,51.3337542966866,-0.43776336142134,"Sports",0,0,1,858
"LivingWell Health Clubs",4240293,51.452811231088,0.24500165192372,"Sports",0,0,1,859
"Shannon Leigh Stables",4230321,51.4295817640902,0.150208955065714,"Sports",0,0,1,860
"David Lloyd Leisure Ltd",4240293,51.6129362565776,-0.442467424418309,"Sports",0,0,1,861
"Oasis Karting Project",4240297,51.4741645186519,-0.129042220241171,"Sports",0,0,1,862
"White Oak Everyone Active",4240293,51.4017422052694,0.170155687430793,"Sports",0,0,1,863
"Wickham Theatre Centre",4250315,51.3728946878368,-0.0103845734743442,"Entertainment",1,0,0,864
"Clerkinworks Theatre Companies",4210273,51.47778740056,-0.0107569613754006,"Entertainment",1,0,0,865
"Orpinton Gateway Club",4250314,51.4086024355308,-0.0181814278237406,"Entertainment",1,0,0,866
"Simon Smith Events",4210273,51.505039271107,-0.503208105394842,"Entertainment",1,0,0,867
"Frames Sports Bar",4240301,51.3195841854099,-0.139443279530354,"Sports",0,0,1,868
"Bar Rumba",4250312,51.5111996435747,-0.133288399914139,"Entertainment",1,0,0,869
"Uxbridge & District Conservative Club",4250314,51.5512661230399,-0.479306269861327,"Entertainment",1,0,0,870
"Old Red Lion Pub",4250315,51.5314798113975,-0.10587386817164,"Entertainment",1,0,0,871
"Young Vic Theatre",4250315,51.5032755306504,-0.107317393302511,"Entertainment",1,0,0,872
"The Playhouse Theatre",4250315,51.5069650499648,-0.123707297208833,"Entertainment",1,0,0,873
"Willesden Working Men's Club",4250314,51.5504057538197,-0.239617951834518,"Entertainment",1,0,0,874
"David Lloyd Leisure Ltd",4240293,51.4224239934511,0.116085020492304,"Sports",0,0,1,875
"St Martins Theatre",4250315,51.5128373893465,-0.127659888304966,"Entertainment",1,0,0,876
"Walnuts Leisure Centre",4240293,51.3767107374763,0.102710308980366,"Sports",0,0,1,877
"Twyford Sports Centre",4240293,51.5090353659712,-0.278017395163449,"Sports",0,0,1,878
"Lower Farm Riding & Livery Stables",4230321,51.3184802447042,-0.383076169504471,"Sports",0,0,1,879
"Fez Club",4250312,51.4608178101338,-0.216637357712349,"Entertainment",1,0,0,880
"Valley Golf Course",4240292,51.6459873152786,-0.0111127130874858,"Sports",0,0,1,881
"Drewitts Events",4210273,51.3360528698373,-0.271701110752919,"Entertainment",1,0,0,882
"Docklands Sailing & Watersports Centre",4230287,51.4943477129363,-0.0248702391455698,"Sports",0,0,1,883
"Colin Lewin Management",4210273,51.6278716002699,-0.536805585810202,"Entertainment",1,0,0,884
"David Lloyd Leisure Ltd",4240293,51.3465875278226,-0.461622710297014,"Sports",0,0,1,885
"East Ham Working Mens Social Club",4250314,51.5314471033875,0.0418659557665799,"Entertainment",1,0,0,886
"Ealing Ex-service Men's Club Ltd",4250314,51.5128476481057,-0.312634517901078,"Entertainment",1,0,0,887
"Elm Park Luncheon Club",4250314,51.5740062141338,-0.412021837075121,"Entertainment",1,0,0,888
"David Lloyd Leisure Ltd",4240293,51.3553380934516,-0.225131290270042,"Sports",0,0,1,889
"Infernos",4250312,51.4631321743652,-0.135914198608363,"Entertainment",1,0,0,890
"New Saigon",4250314,51.4808798609101,-0.0608336003313504,"Entertainment",1,0,0,891
"Dunton Green Social Club",4250314,51.2960772800762,0.16497914487394,"Entertainment",1,0,0,892
"Hanworth Royal Naval Association Club Ltd",4250314,51.4355124273591,-0.393677032248113,"Entertainment",1,0,0,893
"Hendon Leisure Centre",4240293,51.573934728154,-0.21548226293571,"Sports",0,0,1,894
"Walthamstow Conservative Club",4250314,51.584959154148,-0.0092319729330469,"Entertainment",1,0,0,895
"White Water the Canoe Centre",4230287,51.3922189963354,-0.428054365646837,"Sports",0,0,1,896
"Liquid Leisure",4230287,51.4738745599515,-0.557187718193014,"Sports",0,0,1,897
"Hatch Farm Stables",4230321,51.3789471296623,-0.490354349386619,"Sports",0,0,1,898
"Ilford Golf Club",4240292,51.5647357107997,0.055387662962856,"Sports",0,0,1,899
"East Finchley Constitutional Club",4250314,51.5926485144752,-0.169000752682376,"Entertainment",1,0,0,900
"David Lloyd Leisure Ltd",4240293,51.4804156112139,-0.194515489041202,"Sports",0,0,1,901
"David Lloyd Leisure Ltd",4240293,51.3056739986938,-0.558623373506071,"Sports",0,0,1,902
"Up the Creek",4250315,51.4812712222687,-0.0116610438361221,"Entertainment",1,0,0,903
"Donna Maria's World",4210273,51.4271912424494,-0.0825560726103278,"Entertainment",1,0,0,904
"Cheam Social Club",4250314,51.3676081749,-0.217703726399431,"Entertainment",1,0,0,905
"Dulwich Riding School",4230321,51.4434985909065,-0.0750953154309162,"Sports",0,0,1,906
"Places Leisure",4240293,51.4515632425354,-0.193296474462544,"Sports",0,0,1,907
"Tweeters Rehearsal Studios",4250315,51.3108826667862,-0.335782037973111,"Entertainment",1,0,0,908
"Trading Faces Ltd",4210273,51.5128109964935,-0.131756837739155,"Entertainment",1,0,0,909
"Denham Waterski Club",4230287,51.5975396543068,-0.501006696356909,"Sports",0,0,1,910
"Loughton Club",4250314,51.645510474292,0.0541853286430199,"Entertainment",1,0,0,911
"The Cricklewood Club",4250314,51.5632447124972,-0.222775599674508,"Entertainment",1,0,0,912
"The Royal British Legion",4250314,51.4562977219148,0.194000668362415,"Entertainment",1,0,0,913
"Durnsford Sports Centre",4240293,51.6021615657667,-0.13569885885868,"Sports",0,0,1,914
"Downe Liveries Ltd",4230321,51.3365675642067,0.0560216806670845,"Sports",0,0,1,915
"Lullingstone Park Golf Club",4240292,51.3603895684267,0.164362081936515,"Sports",0,0,1,916
"Tylers Hall",4230321,51.5943718788205,0.262075863638608,"Sports",0,0,1,917
"Twynersh Fishery",4230282,51.3947939698388,-0.515174467440555,"Sports",0,0,1,918
"Wandsworth Constituional Club",4250314,51.4546884455994,-0.186966617734427,"Entertainment",1,0,0,919
"Harringey Snooker London Ltd",4240301,51.5830577567096,-0.0995727085842637,"Sports",0,0,1,920
"Epic Creative Production",4210273,51.6133895553199,-0.334011441105299,"Entertainment",1,0,0,921
"Southbury Leisure Centre",4240293,51.6521495972737,-0.0623506907375286,"Sports",0,0,1,922
"Devas Club",4250314,51.4649075314484,-0.156630802727162,"Entertainment",1,0,0,923
"East Barnet Valley United Services Club",4250314,51.6501846547263,-0.171921880308823,"Entertainment",1,0,0,924
"Shakespeare Walk Adventure Playground",4210271,51.5548058961227,-0.0814927836479797,"Entertainment",1,0,0,925
"Harehill Social Club",4250314,51.3646761988747,-0.512140882939508,"Entertainment",1,0,0,926
"Walton Comrades Club",4250314,51.3931931391888,-0.415587654625697,"Entertainment",1,0,0,927
"Sunbury Golf",4240292,51.403535597671,-0.441025525239825,"Sports",0,0,1,928
"M C M Creative Group",4210273,51.5266085387825,-0.0883006924533409,"Entertainment",1,0,0,929
"Walton Conservative Club",4250314,51.3887814348469,-0.418513909576342,"Entertainment",1,0,0,930
"Heaven",4250312,51.5085788596946,-0.124416287276059,"Entertainment",1,0,0,931
"J Y Productions Ltd",4210273,51.5111315423674,-0.188531257357733,"Entertainment",1,0,0,932
"Parkside Social Club",4250314,51.3459921884103,-0.494007658234611,"Entertainment",1,0,0,933
"Royal Epping Forest Golf Club",4240292,51.634513952702,0.0115209403763789,"Sports",0,0,1,934
"Skullduggery Theatre Company",4210273,51.476952057415,-0.0104966495966093,"Entertainment",1,0,0,935
"Orchard Theatre Dartford",4250315,51.4460187935801,0.217887126485576,"Entertainment",1,0,0,936
"Bellingham Leisure & Lifestyle Centre",4240293,51.4322662928475,-0.0194737608181656,"Sports",0,0,1,937
"Erith Playhouse",4250315,51.4811084280358,0.18176242943214,"Entertainment",1,0,0,938
"Bob Hope Theatre",4250315,51.4507192381558,0.0502063798929343,"Entertainment",1,0,0,939
"Unicorn Theatre for Children",4250315,51.5038405593649,-0.0806658666459599,"Entertainment",1,0,0,940
"Richmoor Ltd",4210273,51.5313129949904,-0.0642564639750706,"Entertainment",1,0,0,941
"Papercourt Sailing Club",4230287,51.2941374195787,-0.511237947890207,"Sports",0,0,1,942
"N C M Productions Ltd",4210273,51.4995764951138,-0.187966508731289,"Entertainment",1,0,0,943
"Reynolds Sports Centre",4240293,51.5057285144143,-0.280015284144017,"Sports",0,0,1,944
"The Victoria - Grosvenor Casino",4220280,51.5173216475347,-0.165599207862614,"Gambling",0,1,0,945
"CCTVenues",4250762,51.5188351468911,-0.102463547850948,"Entertainment",1,0,0,946
"New Cross Theatre",4210273,51.4835764469847,0.0316466721831487,"Entertainment",1,0,0,947
"Blue Elephant Theatre",4250315,51.4800405838059,-0.0984287625810274,"Entertainment",1,0,0,948
"Darenth Valley Golf Course",4240292,51.3314320927702,0.187574664634113,"Sports",0,0,1,949
"Wayfarers Ickenham L T C Ltd",4240305,51.5685420118532,-0.457418357523749,"Sports",0,0,1,950
"John Gore Productions Ltd",4210273,51.5159377712582,-0.132043991751969,"Entertainment",1,0,0,951
"The Place",4210273,51.5274989096848,-0.128456874654176,"Entertainment",1,0,0,952
"Morden Recreational Ground",4240302,51.3937402371512,-0.193013857678559,"Sports",0,0,1,953
"Dead Heat Racing",4220279,51.5492355081258,-0.244336250235418,"Gambling",0,1,0,954
"Murgatroyd Ltd",4210273,51.5285283007526,-0.12534386360549,"Entertainment",1,0,0,955
"Corsica Studios",4250312,51.4935148452019,-0.0987468472398586,"Entertainment",1,0,0,956
"Sutcliffe Park Sports Centre",4240302,51.4543123800765,0.0272710877849075,"Sports",0,0,1,957
"William Hill",4220279,51.5728677791025,-0.370949116487927,"Gambling",0,1,0,958
"New Pantomime Productions Ltd",4210273,51.6644372311473,-0.0983527010418181,"Entertainment",1,0,0,959
"All the Greats Entertainments Mobile",4210273,51.6233746975944,-0.154201349609181,"Entertainment",1,0,0,960
"Barnet Copthall Leisure Centre",4240293,51.6046412225075,-0.22523774850783,"Sports",0,0,1,961
"Gilbert & George Ltd",4210273,51.5191762051585,-0.0726412035222576,"Entertainment",1,0,0,962
"Young Actors Theatre",4210273,51.5361255871848,-0.110684510561316,"Entertainment",1,0,0,963
"Northwood Central Club",4250314,51.6109369561823,-0.422706335607351,"Entertainment",1,0,0,964
"Virgin Active Health Club",4240293,51.4946235869368,-0.275650533518865,"Sports",0,0,1,965
"Jillie Bushell Associates",4210273,51.4520078317033,-0.0648495166090936,"Entertainment",1,0,0,966
"Akram Khan Company",4210273,51.5110188110063,-0.117977957113562,"Entertainment",1,0,0,967
"British Motor Cycle Racing Club Ltd",4210820,51.622663551837,-0.105329503264942,"Entertainment",1,0,0,968
"N M P Live Ltd",4210273,51.3114715307412,-0.334696085351374,"Entertainment",1,0,0,969
"Ovation Within the Gatehouse",4210273,51.5717928905545,-0.150390880874819,"Entertainment",1,0,0,970
"Yellow Go-rilla Productions Ltd",4210273,51.4713753332555,-0.125571018164811,"Entertainment",1,0,0,971
"All Entertainment",4210273,51.5571409652316,-0.195806493981376,"Entertainment",1,0,0,972
"Waterbird Parakites",4230287,51.3525418414675,0.25148669849181,"Sports",0,0,1,973
"Magic Junior",4210273,51.4654936733987,-0.176863660583761,"Entertainment",1,0,0,974
"Corsica Press Ltd",4210273,51.5338051198495,-0.141621891855143,"Entertainment",1,0,0,975
"Ayres Clark Theatre School & Maxine Everett",4210273,51.6388918174261,-0.0995805427194242,"Entertainment",1,0,0,976
"Soho Artists",4210273,51.5165224460709,-0.139976091189759,"Entertainment",1,0,0,977
"Graham Richards Ltd",4210273,51.4701229947947,-0.164642081162787,"Entertainment",1,0,0,978
"Kidz Adventure Zone",4210271,51.59465205852,-0.113136835799285,"Entertainment",1,0,0,979
"Solar Management",4210273,51.5322611137905,-0.0950912873993985,"Entertainment",1,0,0,980
"Route 1",4210273,51.4328526731756,-0.0949420116067806,"Entertainment",1,0,0,981
"Vision Music Promotion",4210273,51.4367086294069,-0.0538274666315128,"Entertainment",1,0,0,982
"Sidcup Recreation Club",4250314,51.4228515516115,0.10482767894574,"Entertainment",1,0,0,983
"Reel Time",4210273,51.5185758280064,-0.167595557167893,"Entertainment",1,0,0,984
"Value Added Talent",4210273,51.5426407055801,-0.104833593701363,"Entertainment",1,0,0,985
"Trinifold Management Ltd",4210273,51.5396797426495,-0.147467993666918,"Entertainment",1,0,0,986
"Fair Play Theatre Company Ltd",4210273,51.4587815624499,-0.123625492078909,"Entertainment",1,0,0,987
"Pimlico Toy Library",4210271,51.4875570105409,-0.141644841153103,"Entertainment",1,0,0,988
"Dave Mauchline Theatre Programming",4210273,51.5121117036044,-0.127773230781738,"Entertainment",1,0,0,989
"Crown Music Management Services Ltd",4210273,51.5119854977357,-0.127810110778397,"Entertainment",1,0,0,990
"B M I",4210273,51.5234562909151,-0.150822136118054,"Entertainment",1,0,0,991
"Lisa Davies Promotions",4210273,51.2975348928304,-0.218138196737312,"Entertainment",1,0,0,992
"Sunset Strip",4250312,51.513939709367,-0.132500449535674,"Entertainment",1,0,0,993
"Less Privilege Productions",4210273,51.3926722886484,-0.0549781319916716,"Entertainment",1,0,0,994
"Riverside Arts Centre",4210273,51.4066137739749,-0.405274929406607,"Entertainment",1,0,0,995
"Langham Arts",4210273,51.5173378921088,-0.154024680766053,"Entertainment",1,0,0,996
"Gold's Gym",4240293,51.5832383058823,-0.330813111461847,"Sports",0,0,1,997
"Cadogan Hall",4250315,51.4938649001788,-0.157292435627491,"Entertainment",1,0,0,998
"Nuffield Fitness & Wellbeing Centres",4240293,51.5191389216381,-0.179908318132002,"Sports",0,0,1,999
"Sceub",4240293,51.5746447166388,-0.201554192589257,"Sports",0,0,1,1000
"Knightsbridge Golf Club",4240292,51.500720039274,-0.159191556411513,"Sports",0,0,1,1001
"Foots Cray Social Club",4250314,51.4176759444401,0.116570449945809,"Entertainment",1,0,0,1002
"Hyde Park Stables",4230321,51.5131122267301,-0.174761363094351,"Sports",0,0,1,1003
"West Wickham Leisure Centre",4240293,51.3796496187865,-0.0136411069985018,"Sports",0,0,1,1004
"David Lloyd Leisure Ltd",4240293,51.4371906786704,0.227777612960094,"Sports",0,0,1,1005
"Linkside Lawn Tennis Club",4240305,51.5701253184489,0.0299042785244466,"Sports",0,0,1,1006
"Rhodrons Social Club",4250314,51.3671838682571,-0.305467075831552,"Entertainment",1,0,0,1007
"Belvedere Social Club",4250314,51.4825306632071,0.146563262388748,"Entertainment",1,0,0,1008
"Royal Academy of Dramatic Art",4250315,51.5217035308167,-0.13157743159086,"Entertainment",1,0,0,1009
"Jenningsbet",4220279,51.4584793173832,0.003857901528333,"Gambling",0,1,0,1010
"Welsh Harp Sailing Club",4230287,51.5678925141482,-0.257469598400237,"Sports",0,0,1,1011
"Blackburn Management",4210273,51.4578011937861,-0.195796634940317,"Entertainment",1,0,0,1012
"Royal Ocean Racing Club",4230287,51.5060143924605,-0.140807515116882,"Sports",0,0,1,1013
"Boo Productions Ltd",4210273,51.4100017539575,-0.189123074217397,"Entertainment",1,0,0,1014
"Balletboyz Ltd",4210273,51.4130089698347,-0.298282960884583,"Entertainment",1,0,0,1015
"Gerriets GB Ltd",4210273,51.2951584642872,0.193658757088086,"Entertainment",1,0,0,1016
"Futures Theatre",4210273,51.5044844294086,-0.112022379221929,"Entertainment",1,0,0,1017
"Virgin Active Health Club",4240293,51.6029581252683,0.068742593444958,"Sports",0,0,1,1018
"Hither Green Railwayman's Club",4250314,51.4518357834946,-0.0049651649576088,"Entertainment",1,0,0,1019
"West London Trade Union Club",4250314,51.5064346382215,-0.265679911157165,"Entertainment",1,0,0,1020
"Trent Park Equestrian Centre",4230321,51.6492458625418,-0.131193276749705,"Sports",0,0,1,1021
"The Travellers Club",4250314,51.5067358396024,-0.133011165120591,"Entertainment",1,0,0,1022
"National Association of Railway Clubs",4250314,51.4489458497971,-0.402347038566685,"Entertainment",1,0,0,1023
"The Arkley 9",4240292,51.6476616441114,-0.238593722421841,"Sports",0,0,1,1024
"Richmond Bridge Club",4250314,51.4536541447487,-0.311295968067593,"Entertainment",1,0,0,1025
"Cousins Professional Snooker & Pool Club",4240301,51.5578850064487,-0.11848044944833,"Sports",0,0,1,1026
"Askonas Holt",4210273,51.5151401514713,-0.109203713908927,"Entertainment",1,0,0,1027
"Loring Sports Ground",4240302,51.4313137127847,0.139600903745051,"Sports",0,0,1,1028
"Kings Hall Leisure Centre",4240293,51.5510646231698,-0.0525422966829293,"Sports",0,0,1,1029
"Twisted Stone Golf Club",4240292,51.3281646933552,-0.499256535081534,"Sports",0,0,1,1030
"Millhouse Social Club Ltd",4250314,51.5273106204927,0.163012538720042,"Entertainment",1,0,0,1031
"Lower Priory Farm",4230321,51.6183374278691,-0.335433652871201,"Sports",0,0,1,1032
"Legends Gym",4240293,51.5480256520981,-0.0743645305358354,"Sports",0,0,1,1033
"Deborah McKenna Ltd",4210273,51.4868443387055,-0.274065803762767,"Entertainment",1,0,0,1034
"Freeman P R",4210273,51.4638747542031,-0.115426521124415,"Entertainment",1,0,0,1035
"Sunflower Music",4210273,51.4653788995029,-0.254831258456626,"Entertainment",1,0,0,1036
"A O K Events Ltd",4210273,51.4658540756474,-0.169406031052669,"Entertainment",1,0,0,1037
"I E Music Ltd",4210273,51.5088887937994,-0.227730414412648,"Entertainment",1,0,0,1038
"D E F",4210273,51.461143732093,-0.305300285040545,"Entertainment",1,0,0,1039
"B G M Entertainment",4210273,51.5214823440035,-0.102006116462072,"Entertainment",1,0,0,1040
"Danson Park Water Sports Centre",4230287,51.4543353592106,0.121806771960091,"Sports",0,0,1,1041
"White Hart Lane (Tottenham Hotspur Football Club)",4240302,51.603305637568,-0.0658026852467317,"Sports",0,0,1,1042
"Rough Trade Management",4210273,51.5221555355225,-0.208389798645654,"Entertainment",1,0,0,1043
"A T C",4210273,51.5424536784843,-0.14131283252879,"Entertainment",1,0,0,1044
"Tennant Artists",4210273,51.4788023800254,-0.180960089859206,"Entertainment",1,0,0,1045
"Virgin Active Health Club",4240293,51.5313709543091,-0.105258420019015,"Sports",0,0,1,1046
"Earcandy",4210273,51.4081927620122,-0.186991699284683,"Entertainment",1,0,0,1047
"Seabright Productions Ltd",4210273,51.5130850103526,-0.129653004026063,"Entertainment",1,0,0,1048
"Kafri Studios",4250315,51.5348398785838,-0.0758438951515323,"Entertainment",1,0,0,1049
"The Industry Forum Ltd",4210273,51.5186967098838,-0.121236083465707,"Entertainment",1,0,0,1050
"N J Live",4210273,51.4964111990652,-0.265887505650997,"Entertainment",1,0,0,1051
"Roller Bowl",4240290,51.5924812900531,0.144163565724255,"Sports",0,0,1,1052
"Prime Performers Ltd",4210273,51.5202714182382,-0.103975009351299,"Entertainment",1,0,0,1053
"Hackney Playbus",4210271,51.5517297767125,-0.0347286197365569,"Entertainment",1,0,0,1054
"Adelphi Theatre",4250315,51.5103931018127,-0.123263821356065,"Entertainment",1,0,0,1055
"David Lloyd Leisure Ltd",4240293,51.6596781839487,-0.0613789063902333,"Sports",0,0,1,1056
"Roko Chiswick Bridge",4240293,51.4765441213495,-0.267519463652058,"Sports",0,0,1,1057
"Dagenham Park Leisure Centre",4240293,51.5350152528393,0.155073619911152,"Sports",0,0,1,1058
"P W Production",4250315,51.5114147410944,-0.127545280857411,"Entertainment",1,0,0,1059
"Sandown Conference & Banqueting Centre",4250762,51.3736479467925,-0.362915137567299,"Entertainment",1,0,0,1060
"10 Out of 10 Productions Ltd",4210273,51.4220249697885,-0.0345158228781968,"Entertainment",1,0,0,1061
"Intelligent Lighting",4210273,51.5760379560841,0.164103025049024,"Entertainment",1,0,0,1062
"M A S Ltd",4240299,51.5269800650833,-0.431620570700822,"Sports",0,0,1,1063
"Harwood Hall Estate Ltd",4230321,51.5413252832803,0.248460304522538,"Sports",0,0,1,1064
"Fair View",4250314,51.5517061673318,-0.304720785043925,"Entertainment",1,0,0,1065
"Chillisauce Ltd",4210273,51.499109646495,-0.07567786126403,"Entertainment",1,0,0,1066
"Markham & Froggatt & Irwin",4210273,51.5087604940695,-0.134225356069149,"Entertainment",1,0,0,1067
"Independent Talent Group",4210273,51.520236140237,-0.13486628313646,"Entertainment",1,0,0,1068
"Patrick Hambleton Management Ltd",4210273,51.5439506927491,-0.0891314869138703,"Entertainment",1,0,0,1069
"A & J Artists",4210273,51.6397461229411,-0.0747447918453647,"Entertainment",1,0,0,1070
"Susan Scott's Lookalikes",4210273,51.5664428021148,-0.11369894216899,"Entertainment",1,0,0,1071
"Orangedoor",4210273,51.4116790557082,0.0128836699883089,"Entertainment",1,0,0,1072
"Creative Media Management",4210273,51.5141588160903,-0.305653883744402,"Entertainment",1,0,0,1073
"The Markham Agency",4210273,51.3316821040907,-0.105391535168383,"Entertainment",1,0,0,1074
"Woodcote Park Golf Club",4240292,51.3288137573142,-0.149849649398602,"Sports",0,0,1,1075
"Krulive",4210273,51.4737375460601,-0.202929264668687,"Entertainment",1,0,0,1076
"Hubbard Casting",4210273,51.5100488449949,-0.123667067238583,"Entertainment",1,0,0,1077
"Stevenson Withers Associates",4210273,51.4659662859422,-0.133744230279573,"Entertainment",1,0,0,1078
"Men at Work",4210273,51.5015733152904,-0.341780561736089,"Entertainment",1,0,0,1079
"Newman Hire Company",4210273,51.5076045426588,-0.433164921635286,"Entertainment",1,0,0,1080
"Event Concept Ltd",4210273,51.4910012655401,-0.0590514903933729,"Entertainment",1,0,0,1081
"The Soho Screening Rooms",4250308,51.5145978878549,-0.136566673165846,"Entertainment",1,0,0,1082
"Ragasaan",4210273,51.5450982021418,-0.359855637107833,"Entertainment",1,0,0,1083
"Queen Elizabeth II Centre",4250762,51.5007012240604,-0.129021817693672,"Entertainment",1,0,0,1084
"Lettice",4210273,51.4857479846233,-0.109483612937587,"Entertainment",1,0,0,1085
"Catered by Justin",4210273,51.4354130672677,-0.442760485539681,"Entertainment",1,0,0,1086
"Red Herring Catering & Event Management",4210273,51.4802558903681,-0.185333615133775,"Entertainment",1,0,0,1087
"Reservations 2000",4210273,51.4141899323008,-0.363207410980082,"Entertainment",1,0,0,1088
"Arena Events Service Group",4210273,51.4100466712519,-0.187956563592088,"Entertainment",1,0,0,1089
"Eclipse Global",4210273,51.3955432721187,-0.0480856584396511,"Entertainment",1,0,0,1090
"Encore",4210273,51.5462782924584,-0.487173851650666,"Entertainment",1,0,0,1091
"Blonstein & Associates Ltd",4210273,51.5215455218407,-0.0723537755146136,"Entertainment",1,0,0,1092
"Evolve Events",4210273,51.4800326048269,-0.207650333779679,"Entertainment",1,0,0,1093
"Inca",4210273,51.5212631565328,-0.101353597803447,"Entertainment",1,0,0,1094
